{"last_updated":1691610930,"ttl":2,"data":{"stations":[{"station_id":"5","external_id":"3ea89109-d2f3-46eb-9c41-c43742050340","name":"CE-407  Prolongación Xochicalco-General Emiliano Zapata","short_name":"407","lat":19.367209,"lon":-99.15872,"rental_methods":["KEY","CREDITCARD"],"capacity":19,"electric_bike_surcharge_waiver":false,"is_charging":false,"eightd_has_key_dispenser":false,"has_kiosk":true},{"station_id":"6","external_id":"ba78b703-4e5a-44bd-ab2c-1eedc71e11c3","name":"CE-428  Prolongación Uxmal-Av. Popocatépetl (Eje 8)","short_name":"428","lat":19.363404,"lon":-99.160395,"rental_methods":["KEY","CREDITCARD"],"capacity":27,"electric_bike_surcharge_waiver":false,"is_charging":false,"eightd_has_key_dispenser":false,"has_kiosk":true},{"station_id":"7","external_id":"6563d263-2342-46e3-8983-461e68d2d615","name":"CE-427 Avenida México-Coyoacán-Av. Popocatépetl (Eje","short_name":"427","lat":19.364912,"lon":-99.162968,"rental_methods":["KEY","CREDITCARD"],"capacity":19,"electric_bike_surcharge_waiver":false,"is_charging":false,"eightd_has_key_dispenser":false,"has_kiosk":true},{"station_id":"8","external_id":"ec55e597-c8fc-4e86-bcfe-b0e81a494790","name":"CE-443 Bruno Traven-Golondrinas","short_name":"443","lat":19.359583,"lon":-99.162085,"rental_methods":["KEY","CREDITCARD"],"capacity":31,"electric_bike_surcharge_waiver":false,"is_charging":false,"eightd_has_key_dispenser":false,"has_kiosk":true},{"station_id":"9","external_id":"a98c7fac-12ce-4895-923b-6b39f04721ca","name":"CE-423 Moras-José María Rico (Eje 8)","short_name":"423","lat":19.367816,"lon":-99.175269,"rental_methods":["KEY","CREDITCARD"],"capacity":23,"electric_bike_surcharge_waiver":false,"is_charging":false,"eightd_has_key_dispenser":false,"has_kiosk":true},{"station_id":"10","external_id":"ae1c2b82-7148-41c2-acd1-d9280241f87e","name":"CE-438 Adolfo Prieto-José María Olloqui","short_name":"438","lat":19.36473,"lon":-99.174447,"rental_methods":["KEY","CREDITCARD"],"capacity":23,"electric_bike_surcharge_waiver":false,"is_charging":false,"eightd_has_key_dispenser":false,"has_kiosk":true},{"station_id":"11","external_id":"f6484d2e-8282-41e6-a023-1afb53dae580","name":"CE-415 San Francisco-Parroquia","short_name":"415","lat":19.37099,"lon":-99.176135,"rental_methods":["KEY","CREDITCARD"],"capacity":27,"electric_bike_surcharge_waiver":false,"is_charging":false,"eightd_has_key_dispenser":false,"has_kiosk":true},{"station_id":"12","external_id":"90714c5e-7256-4744-a55d-9370f26d89bd","name":"CE-417 Goya-Augusto Rodin","short_name":"417","lat":19.373198,"lon":-99.184274,"rental_methods":["KEY","CREDITCARD"],"capacity":27,"electric_bike_surcharge_waiver":false,"is_charging":false,"eightd_has_key_dispenser":false,"has_kiosk":true},{"station_id":"14","external_id":"1995f5cd-611e-4571-832d-57f4d19ffc57","name":"CE-022 Reforma - Manchester","short_name":"022","lat":19.424784,"lon":-99.172119,"rental_methods":["KEY","CREDITCARD"],"capacity":35,"electric_bike_surcharge_waiver":false,"is_charging":false,"eightd_has_key_dispenser":false,"has_kiosk":true},{"station_id":"15","external_id":"2f3047ad-7725-4d23-9e59-3b98aeee9f3d","name":"CE-094 Lic. Verdad-Moneda","short_name":"094","lat":19.433766,"lon":-99.130918,"rental_methods":["KEY","CREDITCARD"],"capacity":23,"electric_bike_surcharge_waiver":false,"is_charging":false,"eightd_has_key_dispenser":false,"has_kiosk":true},{"station_id":"16","external_id":"d821ac72-6eb9-47ba-8e9d-b288db2d99d1","name":"CE-405 División Del Norte-Municipio Libre","short_name":"405","lat":19.3705556,"lon":-99.1566667,"rental_methods":["KEY","CREDITCARD"],"capacity":27,"electric_bike_surcharge_waiver":false,"is_charging":false,"eightd_has_key_dispenser":false,"has_kiosk":true},{"station_id":"17","external_id":"4f21a08a-24f2-465e-b8f3-5874d064e015","name":"CE-375 Tenayuca-División Del Norte","short_name":"375","lat":19.376997,"lon":-99.158779,"rental_methods":["KEY","CREDITCARD"],"capacity":23,"electric_bike_surcharge_waiver":false,"is_charging":false,"eightd_has_key_dispenser":false,"has_kiosk":true},{"station_id":"18","external_id":"ac88b65c-7622-4b42-84bd-b9c3f36f7d22","name":"CE-394 Dr. Roberto Gayol-Félix Cuevas","short_name":"394","lat":19.372474,"lon":-99.171639,"rental_methods":["KEY","CREDITCARD"],"capacity":35,"electric_bike_surcharge_waiver":false,"is_charging":false,"eightd_has_key_dispenser":false,"has_kiosk":true},{"station_id":"19","external_id":"08164fbf-ce81-4db0-9bf3-98845325dfa6","name":"CE-337 San Borja-Martín Mendalde","short_name":"337","lat":19.384849,"lon":-99.16704,"rental_methods":["KEY","CREDITCARD"],"capacity":19,"electric_bike_surcharge_waiver":false,"is_charging":false,"eightd_has_key_dispenser":false,"has_kiosk":true},{"station_id":"20","external_id":"8c4eceec-211c-4064-b923-97c71f09b1a7","name":"CE-412 Parroquia-Avenida Universidad","short_name":"412","lat":19.368107,"lon":-99.164376,"rental_methods":["KEY","CREDITCARD"],"capacity":35,"electric_bike_surcharge_waiver":false,"is_charging":false,"eightd_has_key_dispenser":false,"has_kiosk":true},{"station_id":"21","external_id":"616c0715-1a8e-492b-85cb-452f062ca42b","name":"CE-381 San Lorenzo-Manzanas","short_name":"381","lat":19.375495,"lon":-99.177819,"rental_methods":["KEY","CREDITCARD"],"capacity":23,"electric_bike_surcharge_waiver":false,"is_charging":false,"eightd_has_key_dispenser":false,"has_kiosk":true},{"station_id":"22","external_id":"f9827216-5cfa-4eb1-a912-096b9545fa83","name":"CE-332 Calle 27-Avenida 3","short_name":"332","lat":19.385494,"lon":-99.183744,"rental_methods":["KEY","CREDITCARD"],"capacity":23,"electric_bike_surcharge_waiver":false,"is_charging":false,"eightd_has_key_dispenser":false,"has_kiosk":true},{"station_id":"23","external_id":"ef08f966-4d87-4fdc-b783-287605e9c117","name":"CE-399 Heriberto Frías-San Lorenzo","short_name":"399","lat":19.372469,"lon":-99.164538,"rental_methods":["KEY","CREDITCARD"],"capacity":35,"electric_bike_surcharge_waiver":false,"is_charging":false,"eightd_has_key_dispenser":false,"has_kiosk":true},{"station_id":"24","external_id":"78a8e829-3e75-40fd-9543-3ca0cbc15747","name":"CE-377 Heriberto Frías-Miguel Laurent","short_name":"377","lat":19.375397,"lon":-99.163778,"rental_methods":["KEY","CREDITCARD"],"capacity":35,"electric_bike_surcharge_waiver":false,"is_charging":false,"eightd_has_key_dispenser":false,"has_kiosk":true},{"station_id":"25","external_id":"287e590f-e27b-4211-8fb5-9b11bd2fd0cd","name":"CE-360 Heriberto Frías-Matias Romero","short_name":"360","lat":19.379435,"lon":-99.162794,"rental_methods":["KEY","CREDITCARD"],"capacity":23,"electric_bike_surcharge_waiver":false,"is_charging":false,"eightd_has_key_dispenser":false,"has_kiosk":true},{"station_id":"26","external_id":"d353123d-74b4-405b-8257-a61eb1d771ee","name":"CE-362 Augusto Rodin-Alberto Balderas","short_name":"362","lat":19.382109,"lon":-99.181056,"rental_methods":["KEY","CREDITCARD"],"capacity":19,"electric_bike_surcharge_waiver":false,"is_charging":false,"eightd_has_key_dispenser":false,"has_kiosk":true},{"station_id":"27","external_id":"df57391d-94b4-497a-86f0-0681ef80704a","name":"CE-365 Holbein-Avenida Revolución","short_name":"365","lat":19.381123,"lon":-99.18667,"rental_methods":["KEY","CREDITCARD"],"capacity":19,"electric_bike_surcharge_waiver":false,"is_charging":false,"eightd_has_key_dispenser":false,"has_kiosk":true},{"station_id":"28","external_id":"4129eb20-73b3-4e3b-b473-a939ab14156f","name":"CE-424 Amores-José María Rico (Eje 8)","short_name":"424","lat":19.36715,"lon":-99.17055,"rental_methods":["KEY","CREDITCARD"],"capacity":11,"electric_bike_surcharge_waiver":false,"is_charging":false,"eightd_has_key_dispenser":false,"has_kiosk":true},{"station_id":"29","external_id":"22226b72-86e9-4fb9-9f0c-38447c7daa97","name":"CE-421 María Luz Bringas-Oso","short_name":"421","lat":19.36952,"lon":-99.179421,"rental_methods":["KEY","CREDITCARD"],"capacity":31,"electric_bike_surcharge_waiver":false,"is_charging":false,"eightd_has_key_dispenser":false,"has_kiosk":true},{"station_id":"30","external_id":"518b8a91-e2d4-4892-9bb5-caf4f558032f","name":"CE-287 13 de Septiembre-Puente de la Morena","short_name":"287","lat":19.398946,"lon":-99.183254,"rental_methods":["KEY","CREDITCARD"],"capacity":19,"electric_bike_surcharge_waiver":false,"is_charging":false,"eightd_has_key_dispenser":false,"has_kiosk":true},{"station_id":"31","external_id":"4b75ed5c-e81b-4d75-a4ef-8dffce387fd9","name":"CE-288 11 de Abril-Avenida 2","short_name":"288","lat":19.396359,"lon":-99.183579,"rental_methods":["KEY","CREDITCARD"],"capacity":15,"electric_bike_surcharge_waiver":false,"is_charging":false,"eightd_has_key_dispenser":false,"has_kiosk":true},{"station_id":"32","external_id":"7b33d340-464d-47ae-a07f-04d0785ad37b","name":"CE-372 Dr. Roberto Gayol-Tlacoquemécatl","short_name":"372","lat":19.377966,"lon":-99.170272,"rental_methods":["KEY","CREDITCARD"],"capacity":19,"electric_bike_surcharge_waiver":false,"is_charging":false,"eightd_has_key_dispenser":false,"has_kiosk":true},{"station_id":"33","external_id":"b89266bb-5035-46c6-bec9-b2287ee9b396","name":"CE-434 Jose María Olloqui-Amores","short_name":"434","lat":19.363741,"lon":-99.171268,"rental_methods":["KEY","CREDITCARD"],"capacity":27,"electric_bike_surcharge_waiver":false,"is_charging":false,"eightd_has_key_dispenser":false,"has_kiosk":true},{"station_id":"34","external_id":"df9f2e23-6015-45e3-be47-9681ee56bcb6","name":"CE-439 Amores-Avenida Coyoacán","short_name":"439","lat":19.362037,"lon":-99.172683,"rental_methods":["KEY","CREDITCARD"],"capacity":19,"electric_bike_surcharge_waiver":false,"is_charging":false,"eightd_has_key_dispenser":false,"has_kiosk":true},{"station_id":"35","external_id":"ea8f9f3d-f51f-4e35-a8b1-689629a448a8","name":"CE-378 Miguel Laurent-Amores","short_name":"378","lat":19.375865,"lon":-99.168219,"rental_methods":["KEY","CREDITCARD"],"capacity":31,"electric_bike_surcharge_waiver":false,"is_charging":false,"eightd_has_key_dispenser":false,"has_kiosk":true},{"station_id":"36","external_id":"ac8032f2-5d88-428b-8a26-32448c290d5b","name":"CE-437 Moras-Comunal","short_name":"437","lat":19.364916,"lon":-99.175985,"rental_methods":["KEY","CREDITCARD"],"capacity":19,"electric_bike_surcharge_waiver":false,"is_charging":false,"eightd_has_key_dispenser":false,"has_kiosk":true},{"station_id":"37","external_id":"eac91559-8b08-4a23-8a13-b3a5cbc3397f","name":"CE-374 Pitágoras-Pilares","short_name":"374","lat":19.376918,"lon":-99.16108,"rental_methods":["KEY","CREDITCARD"],"capacity":31,"electric_bike_surcharge_waiver":false,"is_charging":false,"eightd_has_key_dispenser":false,"has_kiosk":true},{"station_id":"38","external_id":"fbf45c04-d7b3-42e6-921a-6ba289aaee72","name":"CE-384 Empresa-Poussin","short_name":"384","lat":19.375865,"lon":-99.185573,"rental_methods":["KEY","CREDITCARD"],"capacity":23,"electric_bike_surcharge_waiver":false,"is_charging":false,"eightd_has_key_dispenser":false,"has_kiosk":true},{"station_id":"39","external_id":"7bb63b63-4288-4f6d-99e0-34c7f805f315","name":"CE-348 Indiana-Avenida San Antonio","short_name":"348","lat":19.38542,"lon":-99.17823,"rental_methods":["KEY","CREDITCARD"],"capacity":19,"electric_bike_surcharge_waiver":false,"is_charging":false,"eightd_has_key_dispenser":false,"has_kiosk":true},{"station_id":"40","external_id":"4771fd01-a609-4494-b5a0-9b9a13e62393","name":"CE-397 San Lorenzo-Gabriel Mancera","short_name":"397","lat":19.373112,"lon":-99.166981,"rental_methods":["KEY","CREDITCARD"],"capacity":31,"electric_bike_surcharge_waiver":false,"is_charging":false,"eightd_has_key_dispenser":false,"has_kiosk":true},{"station_id":"41","external_id":"ad09be68-706a-477f-8860-fa91a86420d1","name":"CE-353 Carolina-Holbein","short_name":"353","lat":19.38213,"lon":-99.178814,"rental_methods":["KEY","CREDITCARD"],"capacity":23,"electric_bike_surcharge_waiver":false,"is_charging":false,"eightd_has_key_dispenser":false,"has_kiosk":true},{"station_id":"42","external_id":"6546cc34-2240-4073-8d41-0db07cfdecde","name":"CE-387 Cadiz-Empresa","short_name":"387","lat":19.374267,"lon":-99.180546,"rental_methods":["KEY","CREDITCARD"],"capacity":19,"electric_bike_surcharge_waiver":false,"is_charging":false,"eightd_has_key_dispenser":false,"has_kiosk":true},{"station_id":"43","external_id":"807e7b74-3786-4f1d-8aad-73e222ec9aee","name":"CE-367 Boston -Augusto Rodin","short_name":"367","lat":19.379593,"lon":-99.181351,"rental_methods":["KEY","CREDITCARD"],"capacity":19,"electric_bike_surcharge_waiver":false,"is_charging":false,"eightd_has_key_dispenser":false,"has_kiosk":true},{"station_id":"44","external_id":"b45f855c-06ab-4564-b52b-90b8d1fcea9e","name":"CE-390-391 Oso-Félix Cuevas","short_name":"390-391","lat":19.373161,"lon":-99.178243,"rental_methods":["KEY","CREDITCARD"],"capacity":47,"electric_bike_surcharge_waiver":false,"is_charging":false,"eightd_has_key_dispenser":false,"has_kiosk":true},{"station_id":"45","external_id":"4b57092e-7db3-4caa-be58-5fdfc56774e5","name":"CE-303 Montecito-Av. Insurgentes","short_name":"303","lat":19.394842,"lon":-99.173025,"rental_methods":["KEY","CREDITCARD"],"capacity":27,"electric_bike_surcharge_waiver":false,"is_charging":false,"eightd_has_key_dispenser":false,"has_kiosk":true},{"station_id":"46","external_id":"0e0b8cec-c253-4edc-b46b-86030e5ce26d","name":"CE-370 Tlacoquemécatl-Av. Insurgentes","short_name":"370","lat":19.378827,"lon":-99.176944,"rental_methods":["KEY","CREDITCARD"],"capacity":31,"electric_bike_surcharge_waiver":false,"is_charging":false,"eightd_has_key_dispenser":false,"has_kiosk":true},{"station_id":"47","external_id":"f60886eb-abc3-419f-93ad-a3486fb1d1df","name":"CE-354 Boston-Av. Insurgentes","short_name":"354","lat":19.381714,"lon":-99.176664,"rental_methods":["KEY","CREDITCARD"],"capacity":23,"electric_bike_surcharge_waiver":false,"is_charging":false,"eightd_has_key_dispenser":false,"has_kiosk":true},{"station_id":"48","external_id":"8b8595c4-4b99-47c9-b9cb-18798af3aba7","name":"CE-333 Georgia-Carolina","short_name":"333","lat":19.387624,"lon":-99.180978,"rental_methods":["KEY","CREDITCARD"],"capacity":23,"electric_bike_surcharge_waiver":false,"is_charging":false,"eightd_has_key_dispenser":false,"has_kiosk":true},{"station_id":"49","external_id":"6cf083a7-b9af-4498-8775-15139e0ab145","name":"CE-445-446 Riff-Avenida Río Churubusco","short_name":"445-446","lat":19.358934,"lon":-99.156064,"rental_methods":["KEY","CREDITCARD"],"capacity":59,"electric_bike_surcharge_waiver":false,"is_charging":false,"eightd_has_key_dispenser":false,"has_kiosk":true},{"station_id":"50","external_id":"b397f192-fe32-41ee-8a51-3ecea31ae29f","name":"CE-429 Pirineos-Av. Popocatépetl (Eje 8)","short_name":"429","lat":19.363049,"lon":-99.158436,"rental_methods":["KEY","CREDITCARD"],"capacity":19,"electric_bike_surcharge_waiver":false,"is_charging":false,"eightd_has_key_dispenser":false,"has_kiosk":true},{"station_id":"51","external_id":"1aba47b5-d46a-458c-94cf-684cf9e264fc","name":"CE-414 Parroquia-José Ignacio Bartolache","short_name":"414","lat":19.370221,"lon":-99.173862,"rental_methods":["KEY","CREDITCARD"],"capacity":27,"electric_bike_surcharge_waiver":false,"is_charging":false,"eightd_has_key_dispenser":false,"has_kiosk":true},{"station_id":"52","external_id":"de6d1b56-740c-49b8-8108-9fdc96b3e5be","name":"CE-432 Carrillo Puerto-Avenida México-Coyoacan","short_name":"432","lat":19.361245,"lon":-99.16239,"rental_methods":["KEY","CREDITCARD"],"capacity":35,"electric_bike_surcharge_waiver":false,"is_charging":false,"eightd_has_key_dispenser":false,"has_kiosk":true},{"station_id":"53","external_id":"5fbb3ae5-290e-43e4-af63-ed7c998ddeb0","name":"CE-358 Nicolás San Juan-Matias Romero","short_name":"358","lat":19.380087,"lon":-99.16427,"rental_methods":["KEY","CREDITCARD"],"capacity":23,"electric_bike_surcharge_waiver":false,"is_charging":false,"eightd_has_key_dispenser":false,"has_kiosk":true},{"station_id":"55","external_id":"2faf5722-7a40-40ae-a0d1-75a63476e819","name":"CE-409 Azores-División Del Norte","short_name":"409","lat":19.365125,"lon":-99.155477,"rental_methods":["KEY","CREDITCARD"],"capacity":23,"electric_bike_surcharge_waiver":false,"is_charging":false,"eightd_has_key_dispenser":false,"has_kiosk":true},{"station_id":"56","external_id":"7304514a-8264-4fb6-aad0-ce2118bedd47","name":"CE-413 Parroquia-Avenida Coyoacán","short_name":"413","lat":19.369823,"lon":-99.172164,"rental_methods":["KEY","CREDITCARD"],"capacity":35,"electric_bike_surcharge_waiver":false,"is_charging":false,"eightd_has_key_dispenser":false,"has_kiosk":true},{"station_id":"57","external_id":"5ca28951-6799-4211-a5a8-deb629d685bc","name":"CE-345 Patricio Sanz - Miraflores","short_name":"345","lat":19.384447,"lon":-99.172039,"rental_methods":["KEY","CREDITCARD"],"capacity":23,"electric_bike_surcharge_waiver":false,"is_charging":false,"eightd_has_key_dispenser":false,"has_kiosk":true},{"station_id":"58","external_id":"78d97632-fd6b-4022-b01d-a1ea83d94d64","name":"CE-419 Actipan-Cadiz","short_name":"419","lat":19.370615,"lon":-99.181606,"rental_methods":["KEY","CREDITCARD"],"capacity":31,"electric_bike_surcharge_waiver":false,"is_charging":false,"eightd_has_key_dispenser":false,"has_kiosk":true},{"station_id":"59","external_id":"4e82c891-1e00-4dec-b9ab-ec81464ffb97","name":"CE-307 Minnesota-Dakota","short_name":"307","lat":19.393701,"lon":-99.175834,"rental_methods":["KEY","CREDITCARD"],"capacity":27,"electric_bike_surcharge_waiver":false,"is_charging":false,"eightd_has_key_dispenser":false,"has_kiosk":true},{"station_id":"60","external_id":"6eeb8ffb-d232-488a-bf54-6c654853ebca","name":"CE-361 Porfirio Díaz-Capulín","short_name":"361","lat":19.380691,"lon":-99.175036,"rental_methods":["KEY","CREDITCARD"],"capacity":27,"electric_bike_surcharge_waiver":false,"is_charging":false,"eightd_has_key_dispenser":false,"has_kiosk":true},{"station_id":"61","external_id":"d01f4057-adb8-4d30-9053-a1ad6104338f","name":"CE-393 Adolfo Prieto-Félix Cuevas","short_name":"393","lat":19.373307,"lon":-99.172471,"rental_methods":["KEY","CREDITCARD"],"capacity":35,"electric_bike_surcharge_waiver":false,"is_charging":false,"eightd_has_key_dispenser":false,"has_kiosk":true},{"station_id":"62","external_id":"e7f38a9a-1be2-4e4e-9634-11088af4b034","name":"CE-306 Dakota-Filadelfia","short_name":"306","lat":19.393699,"lon":-99.175664,"rental_methods":["KEY","CREDITCARD"],"capacity":35,"electric_bike_surcharge_waiver":false,"is_charging":false,"eightd_has_key_dispenser":false,"has_kiosk":true},{"station_id":"63","external_id":"cdf47baf-c2cf-404f-b4cf-e468133d1ea2","name":"CE-349 Augusto Rodin-Avenida San Antonio","short_name":"349","lat":19.385632,"lon":-99.180848,"rental_methods":["KEY","CREDITCARD"],"capacity":19,"electric_bike_surcharge_waiver":false,"is_charging":false,"eightd_has_key_dispenser":false,"has_kiosk":true},{"station_id":"64","external_id":"d76624f9-ffe5-447a-ac53-f4406a6e3b95","name":"CE-284 Dakota-Vermont","short_name":"284","lat":19.397693,"lon":-99.172981,"rental_methods":["KEY","CREDITCARD"],"capacity":31,"electric_bike_surcharge_waiver":false,"is_charging":false,"eightd_has_key_dispenser":false,"has_kiosk":true},{"station_id":"65","external_id":"1bceb889-ddef-4684-8c34-37abf921beb0","name":"CE-308 Nueva York-Arizona","short_name":"308","lat":19.393643,"lon":-99.178156,"rental_methods":["KEY","CREDITCARD"],"capacity":31,"electric_bike_surcharge_waiver":false,"is_charging":false,"eightd_has_key_dispenser":false,"has_kiosk":true},{"station_id":"66","external_id":"bea8f5c8-049d-43bb-aeda-50ffb2cc601d","name":"CE-312 Avenida 2-Calle 7","short_name":"312","lat":19.392634,"lon":-99.183737,"rental_methods":["KEY","CREDITCARD"],"capacity":27,"electric_bike_surcharge_waiver":false,"is_charging":false,"eightd_has_key_dispenser":false,"has_kiosk":true},{"station_id":"67","external_id":"b4e673b0-acd6-4c9c-bf8d-d9c1abf182e4","name":"CE-325 Providencia -Avenida Del Valle","short_name":"325","lat":19.388178,"lon":-99.169689,"rental_methods":["KEY","CREDITCARD"],"capacity":23,"electric_bike_surcharge_waiver":false,"is_charging":false,"eightd_has_key_dispenser":false,"has_kiosk":true},{"station_id":"68","external_id":"04becea3-e1da-4eac-8e82-ff9089c18a51","name":"CE-327 Georgia -Pensilvania","short_name":"327","lat":19.38885,"lon":-99.17772,"rental_methods":["KEY","CREDITCARD"],"capacity":15,"electric_bike_surcharge_waiver":false,"is_charging":false,"eightd_has_key_dispenser":false,"has_kiosk":true},{"station_id":"69","external_id":"f9a7d8f5-a7f5-4eac-8462-9fcf05a5ee7d","name":"CE-335 Magdalena-Ameyalco","short_name":"335","lat":19.386989,"lon":-99.173438,"rental_methods":["KEY","CREDITCARD"],"capacity":35,"electric_bike_surcharge_waiver":false,"is_charging":false,"eightd_has_key_dispenser":false,"has_kiosk":true},{"station_id":"70","external_id":"50530ef1-e349-4c8c-9c2c-b266ed8915c4","name":"CE-324 Amores-Avenida Eugenia","short_name":"324","lat":19.387342,"lon":-99.165629,"rental_methods":["KEY","CREDITCARD"],"capacity":19,"electric_bike_surcharge_waiver":false,"is_charging":false,"eightd_has_key_dispenser":false,"has_kiosk":true},{"station_id":"71","external_id":"48868fd7-00c1-4fd1-a5ea-1a1166c32af7","name":"CE-59 Popocatépetl - Ámsterdam","short_name":"059","lat":19.415237,"lon":-99.16659,"rental_methods":["KEY","CREDITCARD"],"capacity":35,"electric_bike_surcharge_waiver":false,"is_charging":false,"eightd_has_key_dispenser":false,"has_kiosk":true},{"station_id":"72","external_id":"15d61e3f-42e9-4c7f-ba20-9ed831486bef","name":"CE-072 Mazatlán - Alfonso Reyes","short_name":"072","lat":19.409859,"lon":-99.179565,"rental_methods":["KEY","CREDITCARD"],"capacity":31,"electric_bike_surcharge_waiver":false,"is_charging":false,"eightd_has_key_dispenser":false,"has_kiosk":true},{"station_id":"73","external_id":"6004a6f9-70ac-4502-bd79-4cf1afd12beb","name":"CE-067 Vicente Suárez - Michoacán","short_name":"067","lat":19.411703,"lon":-99.175753,"rental_methods":["KEY","CREDITCARD"],"capacity":23,"electric_bike_surcharge_waiver":false,"is_charging":false,"eightd_has_key_dispenser":false,"has_kiosk":true},{"station_id":"74","external_id":"0ddcec99-0423-464d-a55a-2d9a31c402f4","name":"CE-343 Enrique Rébsamen-División Del Norte","short_name":"343","lat":19.383904,"lon":-99.160875,"rental_methods":["KEY","CREDITCARD"],"capacity":15,"electric_bike_surcharge_waiver":false,"is_charging":false,"eightd_has_key_dispenser":false,"has_kiosk":true},{"station_id":"75","external_id":"df9b4cd6-4a77-4fc1-b971-82f69d3d3c9e","name":"CE-330 Calle 15-Avenida Patriotismo","short_name":"330","lat":19.389358,"lon":-99.182606,"rental_methods":["KEY","CREDITCARD"],"capacity":19,"electric_bike_surcharge_waiver":false,"is_charging":false,"eightd_has_key_dispenser":false,"has_kiosk":true},{"station_id":"76","external_id":"dfdaccf3-2dda-4c7f-a08f-88e3950fa4ab","name":"CE-315 Alabama-Montana","short_name":"315","lat":19.391472,"lon":-99.1736,"rental_methods":["KEY","CREDITCARD"],"capacity":27,"electric_bike_surcharge_waiver":false,"is_charging":false,"eightd_has_key_dispenser":false,"has_kiosk":true},{"station_id":"77","external_id":"b3368279-9b57-4e21-87f5-5282b2e0f20d","name":"CE-341 San Borja-Avenida Cuauhtémoc","short_name":"341","lat":19.382889,"lon":-99.158352,"rental_methods":["KEY","CREDITCARD"],"capacity":31,"electric_bike_surcharge_waiver":false,"is_charging":false,"eightd_has_key_dispenser":false,"has_kiosk":true},{"station_id":"78","external_id":"93b437ec-ff3f-4347-b5c9-dbbd4310602a","name":"CE-300 Providencia -Luz Saviñón","short_name":"300","lat":19.3932287,"lon":-99.1684308,"rental_methods":["KEY","CREDITCARD"],"capacity":23,"electric_bike_surcharge_waiver":false,"is_charging":false,"eightd_has_key_dispenser":false,"has_kiosk":true},{"station_id":"79","external_id":"546ac683-bcc0-4e6b-a7c2-c4b78784838d","name":"CE-074 Nuevo León - Ozulama","short_name":"074","lat":19.410468,"lon":-99.172802,"rental_methods":["KEY","CREDITCARD"],"capacity":35,"electric_bike_surcharge_waiver":false,"is_charging":false,"eightd_has_key_dispenser":false,"has_kiosk":true},{"station_id":"80","external_id":"8e2c8be2-8d6f-4aa8-8890-8bb5e74c37aa","name":"CE-042 Sinaloa - Valladolid","short_name":"042","lat":19.420627,"lon":-99.16821,"rental_methods":["KEY","CREDITCARD"],"capacity":23,"electric_bike_surcharge_waiver":false,"is_charging":false,"eightd_has_key_dispenser":false,"has_kiosk":true},{"station_id":"81","external_id":"3f96f1b6-d1a5-4f1b-b72e-b884fcce33ea","name":"CE-076 Chilpancingo - Campeche","short_name":"076","lat":19.4086886,"lon":-99.169938,"rental_methods":["KEY","CREDITCARD"],"capacity":19,"electric_bike_surcharge_waiver":false,"is_charging":false,"eightd_has_key_dispenser":false,"has_kiosk":true},{"station_id":"82","external_id":"4d979ccb-028a-47fc-9329-d30c5534272b","name":"CE-064 Sonora - Ámsterdam","short_name":"064","lat":19.41298624243399,"lon":-99.16696842761212,"rental_methods":["KEY","CREDITCARD"],"capacity":27,"electric_bike_surcharge_waiver":false,"is_charging":false,"eightd_has_key_dispenser":false,"has_kiosk":true},{"station_id":"83","external_id":"70c2bb2c-84e5-4db1-aeab-d16609d529c9","name":"CE-056 Alvaro Obregón - Medellin","short_name":"056","lat":19.417102,"lon":-99.165607,"rental_methods":["KEY","CREDITCARD"],"capacity":35,"electric_bike_surcharge_waiver":false,"is_charging":false,"eightd_has_key_dispenser":false,"has_kiosk":true},{"station_id":"84","external_id":"3aeeb91f-79e9-4e5f-9a7c-0c24cd804417","name":"CE-071 Amsterdam - Michoacan","short_name":"071","lat":19.411361,"lon":-99.171271,"rental_methods":["KEY","CREDITCARD"],"capacity":35,"electric_bike_surcharge_waiver":false,"is_charging":false,"eightd_has_key_dispenser":false,"has_kiosk":true},{"station_id":"85","external_id":"d4fa55f7-27b7-4b53-9b8f-78fdd931ad2e","name":"CE-083 Alfonso Reyes - Nuevo León","short_name":"083","lat":19.40655,"lon":-99.172275,"rental_methods":["KEY","CREDITCARD"],"capacity":15,"electric_bike_surcharge_waiver":false,"is_charging":false,"eightd_has_key_dispenser":false,"has_kiosk":true},{"station_id":"86","external_id":"7527e2ef-453a-4d1e-ae0b-6079e5d83fb3","name":"CE-081 Aguascalientes - Insurgentes","short_name":"081","lat":19.407927,"lon":-99.168734,"rental_methods":["KEY","CREDITCARD"],"capacity":27,"electric_bike_surcharge_waiver":false,"is_charging":false,"eightd_has_key_dispenser":false,"has_kiosk":true},{"station_id":"87","external_id":"06ca6c2d-f674-424c-9ee1-a697e00432da","name":"CE-079 Saltillo - Alfonso Reyes","short_name":"079","lat":19.407548521979454,"lon":-99.17434785516434,"rental_methods":["KEY","CREDITCARD"],"capacity":31,"electric_bike_surcharge_waiver":false,"is_charging":false,"eightd_has_key_dispenser":false,"has_kiosk":true},{"station_id":"88","external_id":"aac84896-1549-42d1-aa76-8428008ffa5d","name":"CE-128 Orizaba-Río de Janeiro","short_name":"128","lat":19.422148,"lon":-99.160645,"rental_methods":["KEY","CREDITCARD"],"capacity":23,"electric_bike_surcharge_waiver":false,"is_charging":false,"eightd_has_key_dispenser":false,"has_kiosk":true},{"station_id":"89","external_id":"156e5a27-a9e0-4c12-a758-b2115a0f1452","name":"CE-049 Mazatlán - Juan de la Barrera","short_name":"049","lat":19.41689,"lon":-99.17562,"rental_methods":["KEY","CREDITCARD"],"capacity":39,"electric_bike_surcharge_waiver":false,"is_charging":false,"eightd_has_key_dispenser":false,"has_kiosk":true},{"station_id":"90","external_id":"a31f733c-7877-43c4-811a-eac54cc9053c","name":"CE-066 Mazatlán - Francisco Márquez","short_name":"066","lat":19.411825,"lon":-99.178456,"rental_methods":["KEY","CREDITCARD"],"capacity":27,"electric_bike_surcharge_waiver":false,"is_charging":false,"eightd_has_key_dispenser":false,"has_kiosk":true},{"station_id":"91","external_id":"df051d4e-a60d-4d16-aed1-9e799a08c948","name":"CE-040 Oaxaca - Puebla","short_name":"040","lat":19.42235098990008,"lon":-99.16417356581859,"rental_methods":["KEY","CREDITCARD"],"capacity":23,"electric_bike_surcharge_waiver":false,"is_charging":false,"eightd_has_key_dispenser":false,"has_kiosk":true},{"station_id":"92","external_id":"9598dfff-0c6e-41df-a221-ec2d00bbdec7","name":"CE-053 Fernando Montes de Oca - Tula","short_name":"053","lat":19.4148233,"lon":-99.1783527,"rental_methods":["KEY","CREDITCARD"],"capacity":15,"electric_bike_surcharge_waiver":false,"is_charging":false,"eightd_has_key_dispenser":false,"has_kiosk":true},{"station_id":"93","external_id":"072b459f-c4ed-47c7-b49e-232c8880eb1f","name":"CE-046 Durango - Salamanca","short_name":"046","lat":19.41910678068996,"lon":-99.16973479097578,"rental_methods":["KEY","CREDITCARD"],"capacity":39,"electric_bike_surcharge_waiver":false,"is_charging":false,"eightd_has_key_dispenser":false,"has_kiosk":true},{"station_id":"94","external_id":"2b7cd0d8-4082-4878-9f47-8107f89d465d","name":"CE-447 Agustín Melgar-Zamora","short_name":"447","lat":19.418879,"lon":-99.176854,"rental_methods":["KEY","CREDITCARD"],"capacity":27,"electric_bike_surcharge_waiver":false,"is_charging":false,"eightd_has_key_dispenser":false,"has_kiosk":true},{"station_id":"95","external_id":"249214a8-d4dd-4900-96f9-2a80a011aa5a","name":"CE-060 Mazatlán - Fernando Montes de Oca","short_name":"060","lat":19.414099314684794,"lon":-99.17715847497675,"rental_methods":["KEY","CREDITCARD"],"capacity":39,"electric_bike_surcharge_waiver":false,"is_charging":false,"eightd_has_key_dispenser":false,"has_kiosk":true},{"station_id":"96","external_id":"b9f09930-0db5-4605-ba51-430103eaf38f","name":"CE-302 Luz Saviñón-Magdalena","short_name":"302","lat":19.393832,"lon":-99.171466,"rental_methods":["KEY","CREDITCARD"],"capacity":39,"electric_bike_surcharge_waiver":false,"is_charging":false,"eightd_has_key_dispenser":false,"has_kiosk":true},{"station_id":"97","external_id":"ae7b23d6-608e-4374-912f-8f2c5660f9b4","name":"CE-070 Parque México - Michoacán","short_name":"070","lat":19.41128,"lon":-99.169825,"rental_methods":["KEY","CREDITCARD"],"capacity":35,"electric_bike_surcharge_waiver":false,"is_charging":false,"eightd_has_key_dispenser":false,"has_kiosk":true},{"station_id":"98","external_id":"77cf5164-4cc6-4887-a69b-031880630bfe","name":"CE-125 Morelia-Circular de Morelia","short_name":"125","lat":19.424197,"lon":-99.156127,"rental_methods":["KEY","CREDITCARD"],"capacity":35,"electric_bike_surcharge_waiver":false,"is_charging":false,"eightd_has_key_dispenser":false,"has_kiosk":true},{"station_id":"99","external_id":"cf710fa9-1df7-4226-94af-6c8aca830f0a","name":"CE-100 20 de Noviembre-Mesones","short_name":"100","lat":19.428485,"lon":-99.1338,"rental_methods":["KEY","CREDITCARD"],"capacity":23,"electric_bike_surcharge_waiver":false,"is_charging":false,"eightd_has_key_dispenser":false,"has_kiosk":true},{"station_id":"100","external_id":"7c9106aa-73d6-4a70-9d37-d646d3053cfe","name":"CE-105 San Jerónimo-5 de Febrero","short_name":"105","lat":19.426755,"lon":-99.135014,"rental_methods":["KEY","CREDITCARD"],"capacity":23,"electric_bike_surcharge_waiver":false,"is_charging":false,"eightd_has_key_dispenser":false,"has_kiosk":true},{"station_id":"101","external_id":"f1020179-d76f-4eb4-876e-58a3c8c55727","name":"CE-102 Echeveste-Bolivar","short_name":"102","lat":19.428214,"lon":-99.139494,"rental_methods":["KEY","CREDITCARD"],"capacity":15,"electric_bike_surcharge_waiver":false,"is_charging":false,"eightd_has_key_dispenser":false,"has_kiosk":true},{"station_id":"102","external_id":"83a2242f-4f3e-4efa-a5fc-cce2c1b5884a","name":"CE-097 República de Salvador-Pino Suárez","short_name":"097","lat":19.429189,"lon":-99.132759,"rental_methods":["KEY","CREDITCARD"],"capacity":15,"electric_bike_surcharge_waiver":false,"is_charging":false,"eightd_has_key_dispenser":false,"has_kiosk":true},{"station_id":"103","external_id":"4e7fef7c-b4db-40df-92c8-67cf32fe86ef","name":"CE-099 Ernesto Pugibet-Luis Moya","short_name":"099","lat":19.429947,"lon":-99.14591,"rental_methods":["KEY","CREDITCARD"],"capacity":27,"electric_bike_surcharge_waiver":false,"is_charging":false,"eightd_has_key_dispenser":false,"has_kiosk":true},{"station_id":"104","external_id":"b76512f0-9000-4800-8eda-83edd1ab21d2","name":"CE-107-108 Tolsa-Balderas","short_name":"107-108","lat":19.427305,"lon":-99.149533,"rental_methods":["KEY","CREDITCARD"],"capacity":59,"electric_bike_surcharge_waiver":false,"is_charging":false,"eightd_has_key_dispenser":false,"has_kiosk":true},{"station_id":"105","external_id":"2f2e9c18-cf52-4188-9cf4-e3489ac0f04b","name":"CE-122 José María Vértiz-Av. Dr. Río de la Loza","short_name":"122","lat":19.425502,"lon":-99.146337,"rental_methods":["KEY","CREDITCARD"],"capacity":31,"electric_bike_surcharge_waiver":false,"is_charging":false,"eightd_has_key_dispenser":false,"has_kiosk":true},{"station_id":"106","external_id":"4c654bef-0fd8-4375-be86-1d37bf0e391b","name":"CE-029 Reforma - Bucareli","short_name":"029","lat":19.434944,"lon":-99.150295,"rental_methods":["KEY","CREDITCARD"],"capacity":35,"electric_bike_surcharge_waiver":false,"is_charging":false,"eightd_has_key_dispenser":false,"has_kiosk":true},{"station_id":"107","external_id":"5fabc85c-b2b7-4491-949e-f7510081aafe","name":"CE-110 Dr. Valenzuela-Dr. Río de la loza","short_name":"110","lat":19.425126,"lon":-99.143391,"rental_methods":["KEY","CREDITCARD"],"capacity":35,"electric_bike_surcharge_waiver":false,"is_charging":false,"eightd_has_key_dispenser":false,"has_kiosk":true},{"station_id":"108","external_id":"3e34ce23-0a0e-430b-8f11-48acbd17bdb4","name":"CE-093 Palma Norte-República de Cuba","short_name":"093","lat":19.436741,"lon":-99.134811,"rental_methods":["KEY","CREDITCARD"],"capacity":35,"electric_bike_surcharge_waiver":false,"is_charging":false,"eightd_has_key_dispenser":false,"has_kiosk":true},{"station_id":"109","external_id":"c52f5299-bba8-4a4b-aef8-197798ee6592","name":"CE-091 Republica de Cuba-Allende","short_name":"091","lat":19.4374,"lon":-99.137571,"rental_methods":["KEY","CREDITCARD"],"capacity":19,"electric_bike_surcharge_waiver":false,"is_charging":false,"eightd_has_key_dispenser":false,"has_kiosk":true},{"station_id":"110","external_id":"783c3832-3550-4363-9072-7d0d8286a913","name":"CE-112 Av. Morelos-Abraham González","short_name":"112","lat":19.432819,"lon":-99.151734,"rental_methods":["KEY","CREDITCARD"],"capacity":23,"electric_bike_surcharge_waiver":false,"is_charging":false,"eightd_has_key_dispenser":false,"has_kiosk":true},{"station_id":"111","external_id":"077687ba-b2d3-400f-96bf-c334adc5152a","name":"CE-065 Marconi - Tacuba","short_name":"065","lat":19.436522,"lon":-99.139811,"rental_methods":["KEY","CREDITCARD"],"capacity":19,"electric_bike_surcharge_waiver":false,"is_charging":false,"eightd_has_key_dispenser":false,"has_kiosk":true},{"station_id":"112","external_id":"cce4f62a-7ffd-4b34-8ddd-8cc4e3cdb293","name":"CE-088 2a Cerrada de 5 de Mayo - Palma","short_name":"088","lat":19.433757,"lon":-99.135331,"rental_methods":["KEY","CREDITCARD"],"capacity":15,"electric_bike_surcharge_waiver":false,"is_charging":false,"eightd_has_key_dispenser":false,"has_kiosk":true},{"station_id":"113","external_id":"5fb523c2-bc10-40bc-9183-f742cd6cb1c9","name":"CE-003 Reforma - Insurgentes","short_name":"003","lat":19.43163,"lon":-99.158547,"rental_methods":["KEY","CREDITCARD"],"capacity":31,"electric_bike_surcharge_waiver":false,"is_charging":false,"eightd_has_key_dispenser":false,"has_kiosk":true},{"station_id":"114","external_id":"fb0f91cb-579a-47f7-87cd-52b580922633","name":"CE-109 Nezahualcóyotl-Isabel la Católica","short_name":"109","lat":19.425311,"lon":-99.137421,"rental_methods":["KEY","CREDITCARD"],"capacity":31,"electric_bike_surcharge_waiver":false,"is_charging":false,"eightd_has_key_dispenser":false,"has_kiosk":true},{"station_id":"115","external_id":"b722c570-244b-4fd2-97a0-9731279ee03d","name":"CE-113 General Prim-Versalles","short_name":"113","lat":19.430369,"lon":-99.154419,"rental_methods":["KEY","CREDITCARD"],"capacity":15,"electric_bike_surcharge_waiver":false,"is_charging":false,"eightd_has_key_dispenser":false,"has_kiosk":true},{"station_id":"116","external_id":"ffd6eec6-58e8-47ef-a9ee-0609df2cb972","name":"CE-123 Claudio Bernard-Dr. Lavista","short_name":"123","lat":19.424161,"lon":-99.153117,"rental_methods":["KEY","CREDITCARD"],"capacity":27,"electric_bike_surcharge_waiver":false,"is_charging":false,"eightd_has_key_dispenser":false,"has_kiosk":true},{"station_id":"117","external_id":"e1221ebd-95d8-4967-9e25-c30840fbe4a3","name":"CE-259 Tómas Alva Edison-Ponciano Arriaga","short_name":"259","lat":19.437569,"lon":-99.15468,"rental_methods":["KEY","CREDITCARD"],"capacity":27,"electric_bike_surcharge_waiver":false,"is_charging":false,"eightd_has_key_dispenser":false,"has_kiosk":true},{"station_id":"118","external_id":"23d76976-a26e-4e36-acd2-605f569008d0","name":"CE-260 Av. Juárez-Balderas","short_name":"260","lat":19.4352787,"lon":-99.1477913,"rental_methods":["KEY","CREDITCARD"],"capacity":21,"electric_bike_surcharge_waiver":false,"is_charging":false,"eightd_has_key_dispenser":false,"has_kiosk":true},{"station_id":"119","external_id":"e1fe4dbd-7c77-4b17-bdc4-5525186a59cb","name":"CE-016 Reforma - Río Tiber","short_name":"016","lat":19.4267528,"lon":-99.16861944,"rental_methods":["KEY","CREDITCARD"],"capacity":31,"electric_bike_surcharge_waiver":false,"is_charging":false,"eightd_has_key_dispenser":false,"has_kiosk":true},{"station_id":"120","external_id":"6221a50d-9419-4025-a3fd-75156c46bc89","name":"CE-025 Reforma - Estocolmo","short_name":"025","lat":19.427338,"lon":-99.16672,"rental_methods":["KEY","CREDITCARD"],"capacity":27,"electric_bike_surcharge_waiver":false,"is_charging":false,"eightd_has_key_dispenser":false,"has_kiosk":true},{"station_id":"121","external_id":"60312641-514b-4218-9ff6-c0574698ab51","name":"CE-116 Londres-Roma","short_name":"116","lat":19.428985,"lon":-99.15664,"rental_methods":["KEY","CREDITCARD"],"capacity":23,"electric_bike_surcharge_waiver":false,"is_charging":false,"eightd_has_key_dispenser":false,"has_kiosk":true},{"station_id":"122","external_id":"ed542623-a103-46b3-8bb9-e0f2dede1551","name":"CE-019 Reforma - Río Rhin","short_name":"019","lat":19.429453,"lon":-99.16283,"rental_methods":["KEY","CREDITCARD"],"capacity":31,"electric_bike_surcharge_waiver":false,"is_charging":false,"eightd_has_key_dispenser":false,"has_kiosk":true},{"station_id":"123","external_id":"ff0466e8-713e-4a79-8858-fe849263d2ed","name":"CE-005 Río Pánuco Río Tiber","short_name":"005","lat":19.429804,"lon":-99.169451,"rental_methods":["KEY","CREDITCARD"],"capacity":23,"electric_bike_surcharge_waiver":false,"is_charging":false,"eightd_has_key_dispenser":false,"has_kiosk":true},{"station_id":"124","external_id":"1f179fa2-58f7-4c1d-b794-6c6d07107a12","name":"CE-261 Paseo de la Reforma-Río de la Plata","short_name":"261","lat":19.42491,"lon":-99.172455,"rental_methods":["KEY","CREDITCARD"],"capacity":43,"electric_bike_surcharge_waiver":false,"is_charging":false,"eightd_has_key_dispenser":false,"has_kiosk":true},{"station_id":"125","external_id":"cc8ff731-6d20-4353-be48-4abe02a69ad9","name":"CE-263 Sadi Carnot - Gómez Farias","short_name":"263","lat":19.436274,"lon":-99.158425,"rental_methods":["KEY","CREDITCARD"],"capacity":27,"electric_bike_surcharge_waiver":false,"is_charging":false,"eightd_has_key_dispenser":false,"has_kiosk":true},{"station_id":"126","external_id":"5433ac4c-ad13-4a91-8e6f-b86db29b8593","name":"CE-111 Guillermo Prieto - Joaquín Velázquez de León","short_name":"111","lat":19.438197,"lon":-99.165918,"rental_methods":["KEY","CREDITCARD"],"capacity":27,"electric_bike_surcharge_waiver":false,"is_charging":false,"eightd_has_key_dispenser":false,"has_kiosk":true},{"station_id":"127","external_id":"a62a588b-f2dc-4ceb-8985-2a26251f7116","name":"CE-265 Mina - Jesús García","short_name":"265","lat":19.440839,"lon":-99.152265,"rental_methods":["KEY","CREDITCARD"],"capacity":31,"electric_bike_surcharge_waiver":false,"is_charging":false,"eightd_has_key_dispenser":false,"has_kiosk":true},{"station_id":"128","external_id":"306445b6-1505-4a5c-8780-73efd1add08c","name":"CE-264-275 Héroes Ferrocarrileros - Jesús Garcia","short_name":"264-275","lat":19.440985,"lon":-99.152935,"rental_methods":["KEY","CREDITCARD"],"capacity":71,"electric_bike_surcharge_waiver":false,"is_charging":false,"eightd_has_key_dispenser":false,"has_kiosk":true},{"station_id":"129","external_id":"42e23120-8ea4-45b5-a7fa-eda131ebadeb","name":"CE-255 José Rosas Moreno-Guillermo Prieto","short_name":"255","lat":19.437118,"lon":-99.161862,"rental_methods":["KEY","CREDITCARD"],"capacity":35,"electric_bike_surcharge_waiver":false,"is_charging":false,"eightd_has_key_dispenser":false,"has_kiosk":true},{"station_id":"130","external_id":"f7e1cdde-906b-4ba9-b0fd-f185ebcfaed4","name":"CE-268-269 Luis Donaldo Colosio - Av. Jesús García","short_name":"268-269","lat":19.442467,"lon":-99.151658,"rental_methods":["KEY","CREDITCARD"],"capacity":69,"electric_bike_surcharge_waiver":false,"is_charging":false,"eightd_has_key_dispenser":false,"has_kiosk":true},{"station_id":"131","external_id":"5c393f5a-ea35-4c1d-8b7c-6829c551360e","name":"CE-007 Río Elba - Río Lerma","short_name":"007","lat":19.425355,"lon":-99.17515,"rental_methods":["KEY","CREDITCARD"],"capacity":23,"electric_bike_surcharge_waiver":false,"is_charging":false,"eightd_has_key_dispenser":false,"has_kiosk":true},{"station_id":"132","external_id":"ec6eff8f-ce3d-4554-96c0-e01fddfc1d9e","name":"CE-254 Alfonso Herrera-Miguel Shultz","short_name":"254","lat":19.439347,"lon":-99.160074,"rental_methods":["KEY","CREDITCARD"],"capacity":31,"electric_bike_surcharge_waiver":false,"is_charging":false,"eightd_has_key_dispenser":false,"has_kiosk":true},{"station_id":"133","external_id":"881c8a03-dfa5-43b1-a8a0-3b90c327c6af","name":"CE-115 Roma-Dinamarca","short_name":"115","lat":19.429947,"lon":-99.159698,"rental_methods":["KEY","CREDITCARD"],"capacity":27,"electric_bike_surcharge_waiver":false,"is_charging":false,"eightd_has_key_dispenser":false,"has_kiosk":true},{"station_id":"134","external_id":"4d8c0674-ff31-486e-a8a0-624f12f9a885","name":"CE-273-274 Luis Donaldo Colosio - Av. Jesús García","short_name":"273-274","lat":19.442707,"lon":-99.152956,"rental_methods":["KEY","CREDITCARD"],"capacity":70,"electric_bike_surcharge_waiver":false,"is_charging":false,"eightd_has_key_dispenser":false,"has_kiosk":true},{"station_id":"135","external_id":"d48a4f20-e314-41fe-bcd1-797643475703","name":"CE-035 Liverpool - Génova","short_name":"035","lat":19.424558,"lon":-99.163518,"rental_methods":["KEY","CREDITCARD"],"capacity":23,"electric_bike_surcharge_waiver":false,"is_charging":false,"eightd_has_key_dispenser":false,"has_kiosk":true},{"station_id":"136","external_id":"f0577f79-5dbe-4ffc-9ca1-32342a026cab","name":"CE-012 Río Lerma - Villalongín","short_name":"012","lat":19.432223,"lon":-99.161686,"rental_methods":["KEY","CREDITCARD"],"capacity":15,"electric_bike_surcharge_waiver":false,"is_charging":false,"eightd_has_key_dispenser":false,"has_kiosk":true},{"station_id":"137","external_id":"c039407d-4ccf-410a-8571-fe059d44465e","name":"CE-006 Río Pánuco - Río Sena","short_name":"006","lat":19.430963,"lon":-99.166986,"rental_methods":["KEY","CREDITCARD"],"capacity":15,"electric_bike_surcharge_waiver":false,"is_charging":false,"eightd_has_key_dispenser":false,"has_kiosk":true},{"station_id":"138","external_id":"1c2d98f5-d786-4391-a90e-759624412202","name":"CE-132 Colima-Frontera","short_name":"132","lat":19.420667,"lon":-99.15645,"rental_methods":["KEY","CREDITCARD"],"capacity":23,"electric_bike_surcharge_waiver":false,"is_charging":false,"eightd_has_key_dispenser":false,"has_kiosk":true},{"station_id":"139","external_id":"3660da90-c927-4155-abbf-b46cccad4782","name":"CE-144 Frontera-San Luis Potosí","short_name":"144","lat":19.415192,"lon":-99.154837,"rental_methods":["KEY","CREDITCARD"],"capacity":27,"electric_bike_surcharge_waiver":false,"is_charging":false,"eightd_has_key_dispenser":false,"has_kiosk":true},{"station_id":"140","external_id":"9c9b6abe-59b4-43e0-9f56-c888086b634f","name":"CE-147 Coahuila-Orizaba","short_name":"147","lat":19.412182,"lon":-99.158443,"rental_methods":["KEY","CREDITCARD"],"capacity":27,"electric_bike_surcharge_waiver":false,"is_charging":false,"eightd_has_key_dispenser":false,"has_kiosk":true},{"station_id":"141","external_id":"e23d9a83-4e36-473d-9c7c-c957e308d36c","name":"CE-271-272 Jesús García - Carlos J. Meneses","short_name":"271-272","lat":19.443684,"lon":-99.152465,"rental_methods":["KEY","CREDITCARD"],"capacity":55,"electric_bike_surcharge_waiver":false,"is_charging":false,"eightd_has_key_dispenser":false,"has_kiosk":true},{"station_id":"142","external_id":"c6445288-e120-4ff7-9dcb-4f6242eab5a1","name":"CE-002 Río Guadalquivir - Río Nazas","short_name":"002","lat":19.430495377066244,"lon":-99.17115971451493,"rental_methods":["KEY","CREDITCARD"],"capacity":23,"electric_bike_surcharge_waiver":false,"is_charging":false,"eightd_has_key_dispenser":false,"has_kiosk":true},{"station_id":"143","external_id":"8ced182b-547d-4cbe-a08d-43fe4a3e753b","name":"CE-137 Álvaro Obregón-Mérida","short_name":"137","lat":19.418774,"lon":-99.157081,"rental_methods":["KEY","CREDITCARD"],"capacity":27,"electric_bike_surcharge_waiver":false,"is_charging":false,"eightd_has_key_dispenser":false,"has_kiosk":true},{"station_id":"144","external_id":"d9c6fc77-426e-4451-a872-d976b8c4047c","name":"CE-139 Tonalá-Guanajuato","short_name":"139","lat":19.416128,"lon":-99.162097,"rental_methods":["KEY","CREDITCARD"],"capacity":23,"electric_bike_surcharge_waiver":false,"is_charging":false,"eightd_has_key_dispenser":false,"has_kiosk":true},{"station_id":"145","external_id":"84a1127b-c851-4f85-ad55-5e3510a8927e","name":"CE-190 Gobernador Ignacio Esteva-Maestro José Vasconcelos","short_name":"190","lat":19.409577,"lon":-99.183818,"rental_methods":["KEY","CREDITCARD"],"capacity":31,"electric_bike_surcharge_waiver":false,"is_charging":false,"eightd_has_key_dispenser":false,"has_kiosk":true},{"station_id":"146","external_id":"da115fde-7ce2-4811-b362-5e55b38c3283","name":"CE-185 General Antonio Léon-General Pedro Antonio de los Santos","short_name":"185","lat":19.412776,"lon":-99.182805,"rental_methods":["KEY","CREDITCARD"],"capacity":27,"electric_bike_surcharge_waiver":false,"is_charging":false,"eightd_has_key_dispenser":false,"has_kiosk":true},{"station_id":"147","external_id":"d286decb-ee01-4fb9-bff4-17da6a01427d","name":"CE-228 Campos Elíseos-La Fontaine","short_name":"228","lat":19.427705,"lon":-99.19912,"rental_methods":["KEY","CREDITCARD"],"capacity":19,"electric_bike_surcharge_waiver":false,"is_charging":false,"eightd_has_key_dispenser":false,"has_kiosk":true},{"station_id":"148","external_id":"0463ed02-99a4-496d-8f75-5fcea83fb8c9","name":"CE-220 Plinio-Presidente Masaryk","short_name":"220","lat":19.432655,"lon":-99.205727,"rental_methods":["KEY","CREDITCARD"],"capacity":27,"electric_bike_surcharge_waiver":false,"is_charging":false,"eightd_has_key_dispenser":false,"has_kiosk":true},{"station_id":"149","external_id":"77838d7d-df7d-4809-af2e-2b2d2946d274","name":"CE-204 Temístocles-Homero","short_name":"204","lat":19.435882,"lon":-99.19152,"rental_methods":["KEY","CREDITCARD"],"capacity":27,"electric_bike_surcharge_waiver":false,"is_charging":false,"eightd_has_key_dispenser":false,"has_kiosk":true},{"station_id":"150","external_id":"d48a720e-eaf5-44d2-b41e-a7cdffba4941","name":"CE-199 Anatole France-Av. Ejército Nacional","short_name":"199","lat":19.437934,"lon":-99.197241,"rental_methods":["KEY","CREDITCARD"],"capacity":23,"electric_bike_surcharge_waiver":false,"is_charging":false,"eightd_has_key_dispenser":false,"has_kiosk":true},{"station_id":"151","external_id":"80929cd8-7287-4a40-9ff5-37d3d1ac6d3c","name":"CE-247 Herschel-Rousseau","short_name":"247","lat":19.432276,"lon":-99.18064,"rental_methods":["KEY","CREDITCARD"],"capacity":27,"electric_bike_surcharge_waiver":false,"is_charging":false,"eightd_has_key_dispenser":false,"has_kiosk":true},{"station_id":"152","external_id":"f0fa6f33-b282-4f31-82ae-818ed9abde00","name":"CE-158-159 Huatabampo-Eje 1 Pte. Av. Cuauhtémoc","short_name":"158-159","lat":19.407517,"lon":-99.155373,"rental_methods":["KEY","CREDITCARD"],"capacity":74,"electric_bike_surcharge_waiver":false,"is_charging":false,"eightd_has_key_dispenser":false,"has_kiosk":true},{"station_id":"153","external_id":"18308636-9dbd-4068-b1f6-1adba890c694","name":"CE-207 Torquato Tasso-Homero","short_name":"207","lat":19.434861,"lon":-99.183322,"rental_methods":["KEY","CREDITCARD"],"capacity":23,"electric_bike_surcharge_waiver":false,"is_charging":false,"eightd_has_key_dispenser":false,"has_kiosk":true},{"station_id":"154","external_id":"36c67c3e-5ab0-4a45-bdb4-dfb17807a949","name":"CE-222 Alejandro Dumas-Presidente Masarik","short_name":"222","lat":19.431417,"lon":-99.195774,"rental_methods":["KEY","CREDITCARD"],"capacity":27,"electric_bike_surcharge_waiver":false,"is_charging":false,"eightd_has_key_dispenser":false,"has_kiosk":true},{"station_id":"155","external_id":"6470fba2-3fbd-4929-8532-a35368513a64","name":"CE-216 Alejandro Dumas-Horacio","short_name":"216","lat":19.433419,"lon":-99.195746,"rental_methods":["KEY","CREDITCARD"],"capacity":27,"electric_bike_surcharge_waiver":false,"is_charging":false,"eightd_has_key_dispenser":false,"has_kiosk":true},{"station_id":"156","external_id":"ceeb5dc1-4041-41c9-aaee-a40f5650b11f","name":"CE-212 Hegel-Horacio","short_name":"212","lat":19.433567,"lon":-99.188096,"rental_methods":["KEY","CREDITCARD"],"capacity":35,"electric_bike_surcharge_waiver":false,"is_charging":false,"eightd_has_key_dispenser":false,"has_kiosk":true},{"station_id":"157","external_id":"be2b5ee1-a479-480d-b6b2-4b0eee48cac2","name":"CE-140 Mérida-Zacatecas","short_name":"140","lat":19.416596,"lon":-99.156879,"rental_methods":["KEY","CREDITCARD"],"capacity":19,"electric_bike_surcharge_waiver":false,"is_charging":false,"eightd_has_key_dispenser":false,"has_kiosk":true},{"station_id":"158","external_id":"912ba53b-962f-4be5-bae4-f59a7cb315f4","name":"CE-229 Carlos Dickens-Séneca","short_name":"229","lat":19.430515,"lon":-99.203331,"rental_methods":["KEY","CREDITCARD"],"capacity":23,"electric_bike_surcharge_waiver":false,"is_charging":false,"eightd_has_key_dispenser":false,"has_kiosk":true},{"station_id":"159","external_id":"11196223-b36a-49d8-9fda-ab3150fcf74b","name":"CE-231 Isaac Newton-Aristóteles","short_name":"231","lat":19.42977,"lon":-99.19349,"rental_methods":["KEY","CREDITCARD"],"capacity":27,"electric_bike_surcharge_waiver":false,"is_charging":false,"eightd_has_key_dispenser":false,"has_kiosk":true},{"station_id":"160","external_id":"4db35bc0-68a5-4fa8-a62f-e65cd5f8641a","name":"CE-460 Juan Vázquez De Mella-Homero","short_name":"460","lat":19.437014,"lon":-99.207932,"rental_methods":["KEY","CREDITCARD"],"capacity":35,"electric_bike_surcharge_waiver":false,"is_charging":false,"eightd_has_key_dispenser":false,"has_kiosk":true},{"station_id":"161","external_id":"133bb2de-abcd-411d-92fd-d5b980356135","name":"CE-214 Platón-Horacio","short_name":"214","lat":19.434353,"lon":-99.20322,"rental_methods":["KEY","CREDITCARD"],"capacity":27,"electric_bike_surcharge_waiver":false,"is_charging":false,"eightd_has_key_dispenser":false,"has_kiosk":true},{"station_id":"162","external_id":"777b3832-0016-4dbd-a108-8a26484cb9db","name":"CE-218 Hegel-Ibarbourou","short_name":"218","lat":19.432451,"lon":-99.188033,"rental_methods":["KEY","CREDITCARD"],"capacity":23,"electric_bike_surcharge_waiver":false,"is_charging":false,"eightd_has_key_dispenser":false,"has_kiosk":true},{"station_id":"163","external_id":"3d48e436-6f6b-464a-98fa-6e8153559f47","name":"CE-243 Lago Filt-Miguel de Cervantes Saavedra","short_name":"243","lat":19.441123,"lon":-99.195857,"rental_methods":["KEY","CREDITCARD"],"capacity":23,"electric_bike_surcharge_waiver":false,"is_charging":false,"eightd_has_key_dispenser":false,"has_kiosk":true},{"station_id":"164","external_id":"a10f37a2-d61d-4e19-8a93-9059c02f625e","name":"CE-192-193 Rubén Darío.Reforma","short_name":"192-193","lat":19.425907,"lon":-99.190733,"rental_methods":["KEY","CREDITCARD"],"capacity":49,"electric_bike_surcharge_waiver":false,"is_charging":false,"eightd_has_key_dispenser":false,"has_kiosk":true},{"station_id":"165","external_id":"a193b213-2593-4409-9320-9f6a57ca4d53","name":"CE-464 Mateo Alemán-Prolongación Moliere","short_name":"464","lat":19.442421,"lon":-99.199838,"rental_methods":["KEY","CREDITCARD"],"capacity":15,"electric_bike_surcharge_waiver":false,"is_charging":false,"eightd_has_key_dispenser":false,"has_kiosk":true},{"station_id":"166","external_id":"7e1a6867-e59c-467c-82f5-fa860a736a79","name":"CE-195 Reforma-Circuito Mahatma Gandhi","short_name":"195","lat":19.424858,"lon":-99.185181,"rental_methods":["KEY","CREDITCARD"],"capacity":31,"electric_bike_surcharge_waiver":false,"is_charging":false,"eightd_has_key_dispenser":false,"has_kiosk":true},{"station_id":"167","external_id":"66dd9c37-0d41-4bef-9e7a-48ed6e76da6e","name":"CE-120 Marsella-Nápoles","short_name":"120","lat":19.425437,"lon":-99.159458,"rental_methods":["KEY","CREDITCARD"],"capacity":15,"electric_bike_surcharge_waiver":false,"is_charging":false,"eightd_has_key_dispenser":false,"has_kiosk":true},{"station_id":"168","external_id":"b5df774e-7c54-49d0-bd0e-cabbc8c2b8e9","name":"CE-143 Córdoba-San Luis Potosí","short_name":"143","lat":19.414303,"lon":-99.157542,"rental_methods":["KEY","CREDITCARD"],"capacity":23,"electric_bike_surcharge_waiver":false,"is_charging":false,"eightd_has_key_dispenser":false,"has_kiosk":true},{"station_id":"169","external_id":"0e742203-9892-4394-8d4e-dea9c6256dc3","name":"CE-150 Campeche-Medellín","short_name":"150","lat":19.409894,"lon":-99.164288,"rental_methods":["KEY","CREDITCARD"],"capacity":31,"electric_bike_surcharge_waiver":false,"is_charging":false,"eightd_has_key_dispenser":false,"has_kiosk":true},{"station_id":"170","external_id":"409cd4c5-bfd1-43a8-a5ee-28d9b85b1a3a","name":"CE-161 Quintana Roo-Manzanillo","short_name":"161","lat":19.405533,"lon":-99.164913,"rental_methods":["KEY","CREDITCARD"],"capacity":23,"electric_bike_surcharge_waiver":false,"is_charging":false,"eightd_has_key_dispenser":false,"has_kiosk":true},{"station_id":"171","external_id":"78e2dfbf-b3b2-4f56-b4cf-c098011a864b","name":"CE-031 Hamburgo - Insurgentes","short_name":"031","lat":19.427922277979096,"lon":-99.16124593467885,"rental_methods":["KEY","CREDITCARD"],"capacity":39,"electric_bike_surcharge_waiver":false,"is_charging":false,"eightd_has_key_dispenser":false,"has_kiosk":true},{"station_id":"172","external_id":"0e3f5e8d-2594-46a2-919b-fb0bdf55ff91","name":"CE-280 Anaxágoras-Obrero Mundial","short_name":"280","lat":19.4015,"lon":-99.156406,"rental_methods":["KEY","CREDITCARD"],"capacity":39,"electric_bike_surcharge_waiver":false,"is_charging":false,"eightd_has_key_dispenser":false,"has_kiosk":true},{"station_id":"173","external_id":"99a11305-b58e-4b4a-9d52-46178d17de62","name":"CE-032 Londres - Sevilla","short_name":"032","lat":19.4226672,"lon":-99.1699751,"rental_methods":["KEY","CREDITCARD"],"capacity":35,"electric_bike_surcharge_waiver":false,"is_charging":false,"eightd_has_key_dispenser":false,"has_kiosk":true},{"station_id":"174","external_id":"8d601882-1924-41d7-bab8-cb3a9f8210d3","name":"CE-118 Liverpool-Dinamarca","short_name":"118","lat":19.427114,"lon":-99.158251,"rental_methods":["KEY","CREDITCARD"],"capacity":19,"electric_bike_surcharge_waiver":false,"is_charging":false,"eightd_has_key_dispenser":false,"has_kiosk":true},{"station_id":"175","external_id":"f54a7ca4-6bf9-4c84-a7bc-0f3c5aad50a9","name":"CE-134 Álvaro Obregón-Orizaba","short_name":"134","lat":19.418293491655607,"lon":-99.15993556380272,"rental_methods":["KEY","CREDITCARD"],"capacity":19,"electric_bike_surcharge_waiver":false,"is_charging":false,"eightd_has_key_dispenser":false,"has_kiosk":true},{"station_id":"176","external_id":"80a87439-4869-4365-a035-72412757352b","name":"CE-033 Londres - Florencia","short_name":"033","lat":19.424187,"lon":-99.166497,"rental_methods":["KEY","CREDITCARD"],"capacity":15,"electric_bike_surcharge_waiver":false,"is_charging":false,"eightd_has_key_dispenser":false,"has_kiosk":true},{"station_id":"177","external_id":"8302e10f-5a9f-4207-a325-888e2b065ecd","name":"CE-165 Bajío-Eje 2 Pte. Monterrey","short_name":"165","lat":19.404268,"lon":-99.160503,"rental_methods":["KEY","CREDITCARD"],"capacity":23,"electric_bike_surcharge_waiver":false,"is_charging":false,"eightd_has_key_dispenser":false,"has_kiosk":true},{"station_id":"178","external_id":"7e7f4bec-01d0-4a3c-b852-99c9cf456d9f","name":"CE-179 Nuevo León-Quintana Roo","short_name":"179","lat":19.404452,"lon":-99.171438,"rental_methods":["KEY","CREDITCARD"],"capacity":27,"electric_bike_surcharge_waiver":false,"is_charging":false,"eightd_has_key_dispenser":false,"has_kiosk":true},{"station_id":"179","external_id":"9967aa17-a627-408a-8241-de58891aa415","name":"CE-293 Mier y Pesado-Eje 4 Sur Xola","short_name":"293","lat":19.397373,"lon":-99.164598,"rental_methods":["KEY","CREDITCARD"],"capacity":23,"electric_bike_surcharge_waiver":false,"is_charging":false,"eightd_has_key_dispenser":false,"has_kiosk":true},{"station_id":"180","external_id":"edd10a8a-6a2c-4598-a721-035a0a7c8729","name":"CE-037 Guadalajara - Puebla","short_name":"037","lat":19.42041712015948,"lon":-99.17271204298231,"rental_methods":["KEY","CREDITCARD"],"capacity":35,"electric_bike_surcharge_waiver":false,"is_charging":false,"eightd_has_key_dispenser":false,"has_kiosk":true},{"station_id":"181","external_id":"35df08af-eb96-4b78-b97b-b337073191c3","name":"CE-156 Tepic-Ario","short_name":"156","lat":19.406959,"lon":-99.163021,"rental_methods":["KEY","CREDITCARD"],"capacity":19,"electric_bike_surcharge_waiver":false,"is_charging":false,"eightd_has_key_dispenser":false,"has_kiosk":true},{"station_id":"182","external_id":"2e40c543-de02-459b-88bb-fcd1799d0be4","name":"CE-285 12 de Octubre-Minería","short_name":"285","lat":19.399763,"lon":-99.177538,"rental_methods":["KEY","CREDITCARD"],"capacity":19,"electric_bike_surcharge_waiver":false,"is_charging":false,"eightd_has_key_dispenser":false,"has_kiosk":true},{"station_id":"183","external_id":"8bf6e289-4749-4b81-a1fe-051d07f75e58","name":"CE-131 Colima-Jalapa","short_name":"131","lat":19.419579,"lon":-99.161314,"rental_methods":["KEY","CREDITCARD"],"capacity":19,"electric_bike_surcharge_waiver":false,"is_charging":false,"eightd_has_key_dispenser":false,"has_kiosk":true},{"station_id":"184","external_id":"3de3a1dc-569d-44cf-887b-6c7a29150ab3","name":"CE-030 Hamburgo - Génova","short_name":"030","lat":19.426384,"lon":-99.164255,"rental_methods":["KEY","CREDITCARD"],"capacity":23,"electric_bike_surcharge_waiver":false,"is_charging":false,"eightd_has_key_dispenser":false,"has_kiosk":true},{"station_id":"185","external_id":"d4769afb-482b-48c1-a23e-f52d41e952a9","name":"CE-057 Cuernavaca - Juan Escutia","short_name":"057","lat":19.414968,"lon":-99.174766,"rental_methods":["KEY","CREDITCARD"],"capacity":11,"electric_bike_surcharge_waiver":false,"is_charging":false,"eightd_has_key_dispenser":false,"has_kiosk":true},{"station_id":"186","external_id":"bd0a7dda-6f6f-4e09-bd7e-c09feaaa62c6","name":"CE-058 Parque España - Juan de la Barrera","short_name":"058","lat":19.415358,"lon":-99.171902,"rental_methods":["KEY","CREDITCARD"],"capacity":27,"electric_bike_surcharge_waiver":false,"is_charging":false,"eightd_has_key_dispenser":false,"has_kiosk":true},{"station_id":"187","external_id":"733982f6-1ee9-41c7-a6e0-1460b4d7733c","name":"CE-175 Mutualismo-José Martí","short_name":"175","lat":19.400767,"lon":-99.172533,"rental_methods":["KEY","CREDITCARD"],"capacity":23,"electric_bike_surcharge_waiver":false,"is_charging":false,"eightd_has_key_dispenser":false,"has_kiosk":true},{"station_id":"188","external_id":"2c6c91cf-8c3d-4591-8ad7-f7fdc7f7e5a4","name":"CE-148 Coahuila-Av. Cuauhtémoc","short_name":"148","lat":19.412829,"lon":-99.155116,"rental_methods":["KEY","CREDITCARD"],"capacity":19,"electric_bike_surcharge_waiver":false,"is_charging":false,"eightd_has_key_dispenser":false,"has_kiosk":true},{"station_id":"189","external_id":"9cea9a1f-8f20-4eb0-909f-cf4332c27001","name":"CE-177 Benjamín Hill - Carlos Zetina","short_name":"177","lat":19.408841,"lon":-99.181692,"rental_methods":["KEY","CREDITCARD"],"capacity":19,"electric_bike_surcharge_waiver":false,"is_charging":false,"eightd_has_key_dispenser":false,"has_kiosk":true},{"station_id":"190","external_id":"3c452fe8-f41f-40d3-9ca2-076d4cf888cd","name":"CE-166 Progreso-Cda. Antonio Maceo","short_name":"166","lat":19.406069,"lon":-99.183549,"rental_methods":["KEY","CREDITCARD"],"capacity":23,"electric_bike_surcharge_waiver":false,"is_charging":false,"eightd_has_key_dispenser":false,"has_kiosk":true},{"station_id":"191","external_id":"42c277d6-ac0f-471e-b730-44ed26f318da","name":"CE-241 Ejército Nacional-Juan Vázquez de la Mella","short_name":"241","lat":19.438616,"lon":-99.207577,"rental_methods":["KEY","CREDITCARD"],"capacity":19,"electric_bike_surcharge_waiver":false,"is_charging":false,"eightd_has_key_dispenser":false,"has_kiosk":true},{"station_id":"192","external_id":"3275dac0-7dde-4325-a3ad-726ca9ae95a0","name":"CE-173 Minería-José Martí","short_name":"173","lat":19.401682,"lon":-99.176398,"rental_methods":["KEY","CREDITCARD"],"capacity":23,"electric_bike_surcharge_waiver":false,"is_charging":false,"eightd_has_key_dispenser":false,"has_kiosk":true},{"station_id":"193","external_id":"2a318111-5ae7-4bd3-a1a6-0afaffa52bb9","name":"CE-126 Jalapa-Puebla","short_name":"126","lat":19.422288,"lon":-99.162138,"rental_methods":["KEY","CREDITCARD"],"capacity":34,"electric_bike_surcharge_waiver":false,"is_charging":false,"eightd_has_key_dispenser":false,"has_kiosk":true},{"station_id":"194","external_id":"70300522-9689-45b8-8ce3-33180b5d9907","name":"CE-127 Puebla-Merida","short_name":"127","lat":19.423318,"lon":-99.15833,"rental_methods":["KEY","CREDITCARD"],"capacity":27,"electric_bike_surcharge_waiver":false,"is_charging":false,"eightd_has_key_dispenser":false,"has_kiosk":true},{"station_id":"195","external_id":"56e34212-7703-45f6-8a08-ba24644f38ed","name":"CE-180 Quintana Roo-Villahermosa","short_name":"180","lat":19.404554,"lon":-99.169953,"rental_methods":["KEY","CREDITCARD"],"capacity":27,"electric_bike_surcharge_waiver":false,"is_charging":false,"eightd_has_key_dispenser":false,"has_kiosk":true},{"station_id":"196","external_id":"670c0069-5cf1-4860-9977-d1dd0c01dbb5","name":"CE-467 Lago Mayor-Lago Alberto","short_name":"467","lat":19.440399,"lon":-99.186784,"rental_methods":["KEY","CREDITCARD"],"capacity":27,"electric_bike_surcharge_waiver":false,"is_charging":false,"eightd_has_key_dispenser":false,"has_kiosk":true},{"station_id":"197","external_id":"a322aa10-01ec-480f-bc05-232eff984aca","name":"CE-167 General Salvador Alvarado-Progreso","short_name":"167","lat":19.404651,"lon":-99.179375,"rental_methods":["KEY","CREDITCARD"],"capacity":23,"electric_bike_surcharge_waiver":false,"is_charging":false,"eightd_has_key_dispenser":false,"has_kiosk":true},{"station_id":"198","external_id":"72f15f30-a6ff-421c-8425-6f2c24b7546e","name":"CE-196 Lago Tanganica- Av. Ejército Nacional","short_name":"196","lat":19.438349,"lon":-99.192904,"rental_methods":["KEY","CREDITCARD"],"capacity":27,"electric_bike_surcharge_waiver":false,"is_charging":false,"eightd_has_key_dispenser":false,"has_kiosk":true},{"station_id":"199","external_id":"6f36d8e7-b28f-4430-992a-9d1815fb5652","name":"CE-152 Tlacotalpan-Campeche","short_name":"152","lat":19.409098,"lon":-99.167181,"rental_methods":["KEY","CREDITCARD"],"capacity":35,"electric_bike_surcharge_waiver":false,"is_charging":false,"eightd_has_key_dispenser":false,"has_kiosk":true},{"station_id":"200","external_id":"3b071704-a31f-4242-b9fa-37111cb845d8","name":"CE-200 Emerson-Av. Ejército Nacional","short_name":"200","lat":19.437596,"lon":-99.188785,"rental_methods":["KEY","CREDITCARD"],"capacity":27,"electric_bike_surcharge_waiver":false,"is_charging":false,"eightd_has_key_dispenser":false,"has_kiosk":true},{"station_id":"201","external_id":"f1a112f3-0429-4708-a6b4-deae29c419af","name":"CE-461 Presa Don Martín-Boulevard Miguel De Cervantes Saavedra","short_name":"461","lat":19.440106,"lon":-99.210031,"rental_methods":["KEY","CREDITCARD"],"capacity":31,"electric_bike_surcharge_waiver":false,"is_charging":false,"eightd_has_key_dispenser":false,"has_kiosk":true},{"station_id":"202","external_id":"a3bbb7c5-b4b1-4b4a-bd91-9d57342ab5d7","name":"CE-454 Montes Urales-Monte Pelvoux","short_name":"454","lat":19.425905,"lon":-99.204236,"rental_methods":["KEY","CREDITCARD"],"capacity":11,"electric_bike_surcharge_waiver":false,"is_charging":false,"eightd_has_key_dispenser":false,"has_kiosk":true},{"station_id":"203","external_id":"7a35f838-c74a-420f-8ad8-08bb5f079057","name":"CE-466 Lago Onega-Lago Ladoga","short_name":"466","lat":19.44269,"lon":-99.19083,"rental_methods":["KEY","CREDITCARD"],"capacity":27,"electric_bike_surcharge_waiver":false,"is_charging":false,"eightd_has_key_dispenser":false,"has_kiosk":true},{"station_id":"204","external_id":"bcefffd6-2e36-4eac-b9ac-9b93ca3ade98","name":"CE-213 Solón-Cicerón","short_name":"213","lat":19.434361,"lon":-99.206342,"rental_methods":["KEY","CREDITCARD"],"capacity":27,"electric_bike_surcharge_waiver":false,"is_charging":false,"eightd_has_key_dispenser":false,"has_kiosk":true},{"station_id":"205","external_id":"f1824de8-fc68-4521-89ab-b32549d82f03","name":"CE-157 Tepic-Tlacotalpan","short_name":"157","lat":19.406236,"lon":-99.166616,"rental_methods":["KEY","CREDITCARD"],"capacity":30,"electric_bike_surcharge_waiver":false,"is_charging":false,"eightd_has_key_dispenser":false,"has_kiosk":true},{"station_id":"206","external_id":"f1aa8864-8f10-456d-a670-eac99fb9dcf8","name":"CE-456 Alpes-Montes Escandinavos","short_name":"456","lat":19.427517,"lon":-99.208412,"rental_methods":["KEY","CREDITCARD"],"capacity":27,"electric_bike_surcharge_waiver":false,"is_charging":false,"eightd_has_key_dispenser":false,"has_kiosk":true},{"station_id":"207","external_id":"35476e7f-02a5-49c4-89d9-34edee8fdccf","name":"CE-459 Volcán-Montes Urales","short_name":"459","lat":19.429243,"lon":-99.207267,"rental_methods":["KEY","CREDITCARD"],"capacity":31,"electric_bike_surcharge_waiver":false,"is_charging":false,"eightd_has_key_dispenser":false,"has_kiosk":true},{"station_id":"208","external_id":"81e4064e-23fe-41e9-a0d2-77138d975a06","name":"CE-457 Av. Prado Norte-Explanada","short_name":"457","lat":19.42703,"lon":-99.212845,"rental_methods":["KEY","CREDITCARD"],"capacity":17,"electric_bike_surcharge_waiver":false,"is_charging":false,"eightd_has_key_dispenser":false,"has_kiosk":true},{"station_id":"209","external_id":"0b7e9105-db90-4299-9749-1325ec8d792f","name":"CE-283 Av. Coyoacán-Rafael Dondé","short_name":"283","lat":19.397923,"lon":-99.167248,"rental_methods":["KEY","CREDITCARD"],"capacity":19,"electric_bike_surcharge_waiver":false,"is_charging":false,"eightd_has_key_dispenser":false,"has_kiosk":true},{"station_id":"210","external_id":"60300e6b-de2e-4dd4-a78b-6140ade32ae6","name":"CE-294 Nicolás San Juan-Eje 4 Sur Xola","short_name":"294","lat":19.396513,"lon":-99.160924,"rental_methods":["KEY","CREDITCARD"],"capacity":15,"electric_bike_surcharge_waiver":false,"is_charging":false,"eightd_has_key_dispenser":false,"has_kiosk":true},{"station_id":"211","external_id":"0837f082-cf89-4e6b-886e-472f1aa7ad56","name":"CE-278 Mier Y Pesado-Obrero Mundial","short_name":"278","lat":19.40071,"lon":-99.163831,"rental_methods":["KEY","CREDITCARD"],"capacity":19,"electric_bike_surcharge_waiver":false,"is_charging":false,"eightd_has_key_dispenser":false,"has_kiosk":true},{"station_id":"212","external_id":"25cb18bd-cb86-4e8b-bebf-327504da8827","name":"CE-282 La Morena-Eje 2 Poniente Gabriel Mancera","short_name":"282","lat":19.398692,"lon":-99.161273,"rental_methods":["KEY","CREDITCARD"],"capacity":19,"electric_bike_surcharge_waiver":false,"is_charging":false,"eightd_has_key_dispenser":false,"has_kiosk":true},{"station_id":"213","external_id":"25875bdc-ed4e-46d6-8ea0-5312a6acb0b7","name":"CE-320 Enrique Rébsamen-Luz Saviñón","short_name":"320","lat":19.391323,"lon":-99.15936,"rental_methods":["KEY","CREDITCARD"],"capacity":19,"electric_bike_surcharge_waiver":false,"is_charging":false,"eightd_has_key_dispenser":false,"has_kiosk":true},{"station_id":"214","external_id":"59c0ad8a-96c5-4cc8-8805-67185b93dde3","name":"CE-044 Durango - Veracruz","short_name":"044","lat":19.418141,"lon":-99.174709,"rental_methods":["KEY","CREDITCARD"],"capacity":27,"electric_bike_surcharge_waiver":false,"is_charging":false,"eightd_has_key_dispenser":false,"has_kiosk":true},{"station_id":"215","external_id":"1d89caaa-34ad-423c-baef-9238e98adcd1","name":"CE-114 Lucerna-Abraham González","short_name":"114","lat":19.428989,"lon":-99.153618,"rental_methods":["KEY","CREDITCARD"],"capacity":23,"electric_bike_surcharge_waiver":false,"is_charging":false,"eightd_has_key_dispenser":false,"has_kiosk":true},{"station_id":"216","external_id":"85ac1483-f82c-480d-96c6-79d70aabed25","name":"CE-322 Heriberto Frías-Concepción Beistegui","short_name":"322","lat":19.388528,"lon":-99.160616,"rental_methods":["KEY","CREDITCARD"],"capacity":27,"electric_bike_surcharge_waiver":false,"is_charging":false,"eightd_has_key_dispenser":false,"has_kiosk":true},{"station_id":"217","external_id":"269a21a7-ed01-48e9-8478-d8ec3ac0dbe8","name":"CE-318 Luz Saviñón-Amores","short_name":"318","lat":19.392195,"lon":-99.163987,"rental_methods":["KEY","CREDITCARD"],"capacity":23,"electric_bike_surcharge_waiver":false,"is_charging":false,"eightd_has_key_dispenser":false,"has_kiosk":true},{"station_id":"218","external_id":"fc663fa8-2eac-44cf-b47b-9957d1ac7630","name":"CE-009 Río Guadalquivir - Río Lerma","short_name":"009","lat":19.428184,"lon":-99.170013,"rental_methods":["KEY","CREDITCARD"],"capacity":15,"electric_bike_surcharge_waiver":false,"is_charging":false,"eightd_has_key_dispenser":false,"has_kiosk":true},{"station_id":"219","external_id":"10ab9ff7-ad23-4b67-8582-05099073027a","name":"CE-234 Tres Picos-Arquímides","short_name":"234","lat":19.42783,"lon":-99.191539,"rental_methods":["KEY","CREDITCARD"],"capacity":27,"electric_bike_surcharge_waiver":false,"is_charging":false,"eightd_has_key_dispenser":false,"has_kiosk":true},{"station_id":"220","external_id":"3c179e0f-4408-4e0c-9c28-96b72ae18434","name":"CE-339 Enrique Rébsamen-Avenida Eugenia","short_name":"339","lat":19.386212,"lon":-99.160583,"rental_methods":["KEY","CREDITCARD"],"capacity":23,"electric_bike_surcharge_waiver":false,"is_charging":false,"eightd_has_key_dispenser":false,"has_kiosk":true},{"station_id":"221","external_id":"37b1fb2b-0085-4fd4-be73-194059e3b139","name":"CE-188 Gobernador Melchor Múzquiz-Gobernador Ignacio Esteva","short_name":"188","lat":19.411711,"lon":-99.190139,"rental_methods":["KEY","CREDITCARD"],"capacity":19,"electric_bike_surcharge_waiver":false,"is_charging":false,"eightd_has_key_dispenser":false,"has_kiosk":true},{"station_id":"222","external_id":"7b11371a-d663-4e80-a309-a7f724841d94","name":"CE-298 Romero de Terreros-Gabriel Mancera","short_name":"298","lat":19.394092,"lon":-99.162139,"rental_methods":["KEY","CREDITCARD"],"capacity":19,"electric_bike_surcharge_waiver":false,"is_charging":false,"eightd_has_key_dispenser":false,"has_kiosk":true},{"station_id":"223","external_id":"d9baab85-cb4c-4e82-8ae7-0fe7caeee6db","name":"CE-189 Gobernador Rafael Rebollar-Gobernador José Ceballos","short_name":"189","lat":19.410036,"lon":-99.187978,"rental_methods":["KEY","CREDITCARD"],"capacity":19,"electric_bike_surcharge_waiver":false,"is_charging":false,"eightd_has_key_dispenser":false,"has_kiosk":true},{"station_id":"224","external_id":"b7fa58f7-e27f-463a-8c56-132e8fb5b151","name":"CE-249 Shakespeare-Darwin","short_name":"249","lat":19.429877,"lon":-99.177569,"rental_methods":["KEY","CREDITCARD"],"capacity":15,"electric_bike_surcharge_waiver":false,"is_charging":false,"eightd_has_key_dispenser":false,"has_kiosk":true},{"station_id":"225","external_id":"074797ef-d08c-4996-bd69-47a6e3838d33","name":"CE-043 Revillagigedo - Juárez","short_name":"043","lat":19.4351365,"lon":-99.1460756,"rental_methods":["KEY","CREDITCARD"],"capacity":31,"electric_bike_surcharge_waiver":false,"is_charging":false,"eightd_has_key_dispenser":false,"has_kiosk":true},{"station_id":"226","external_id":"20deee9d-56a1-417d-b2d2-57b75641a5bf","name":"CE-469 Bahía de la Concepción-Bahía de Todos Los Santos","short_name":"469","lat":19.434183,"lon":-99.173089,"rental_methods":["KEY","CREDITCARD"],"capacity":27,"electric_bike_surcharge_waiver":false,"is_charging":false,"eightd_has_key_dispenser":false,"has_kiosk":true},{"station_id":"227","external_id":"7bfc09be-39d8-4bae-ae8d-fbbbe8377c44","name":"CE-472 Bahía de Santa Bárbara-Bahía de Ballenas","short_name":"472","lat":19.437667,"lon":-99.17711,"rental_methods":["KEY","CREDITCARD"],"capacity":23,"electric_bike_surcharge_waiver":false,"is_charging":false,"eightd_has_key_dispenser":false,"has_kiosk":true},{"station_id":"228","external_id":"24e36422-4f14-4392-9674-4c07d34dfd5e","name":"CE-048 Independencia - Azueta","short_name":"048","lat":19.433705,"lon":-99.146665,"rental_methods":["KEY","CREDITCARD"],"capacity":11,"electric_bike_surcharge_waiver":false,"is_charging":false,"eightd_has_key_dispenser":false,"has_kiosk":true},{"station_id":"229","external_id":"4181d396-39f8-4ccc-835a-31deeb19015b","name":"CE-181 Benjamín Franklin - Ometusco","short_name":"181","lat":19.404733,"lon":-99.174461,"rental_methods":["KEY","CREDITCARD"],"capacity":27,"electric_bike_surcharge_waiver":false,"is_charging":false,"eightd_has_key_dispenser":false,"has_kiosk":true},{"station_id":"230","external_id":"4820ed30-2db1-4280-ae46-f8b03dbb2e5b","name":"CE-246 Leibnitz-Thiers","short_name":"246","lat":19.434147,"lon":-99.179835,"rental_methods":["KEY","CREDITCARD"],"capacity":15,"electric_bike_surcharge_waiver":false,"is_charging":false,"eightd_has_key_dispenser":false,"has_kiosk":true},{"station_id":"231","external_id":"62bc9c0d-6177-47b0-9a43-a8e3990c47b8","name":"CE-479 Lago Muritz-Av.Marina Nacional","short_name":"479","lat":19.444433,"lon":-99.179664,"rental_methods":["KEY","CREDITCARD"],"capacity":23,"electric_bike_surcharge_waiver":false,"is_charging":false,"eightd_has_key_dispenser":false,"has_kiosk":true},{"station_id":"232","external_id":"176bc26a-c15d-4a25-a599-51025bb57a2d","name":"CE-281 Pitágoras-La Morena","short_name":"281","lat":19.398532,"lon":-99.157308,"rental_methods":["KEY","CREDITCARD"],"capacity":31,"electric_bike_surcharge_waiver":false,"is_charging":false,"eightd_has_key_dispenser":false,"has_kiosk":true},{"station_id":"233","external_id":"7c5e0e44-d2ca-4761-9d4a-dafc2f8be165","name":"CE-480 Lago Iseo-Av. Marina Nacional","short_name":"480","lat":19.446073,"lon":-99.181654,"rental_methods":["KEY","CREDITCARD"],"capacity":19,"electric_bike_surcharge_waiver":false,"is_charging":false,"eightd_has_key_dispenser":false,"has_kiosk":true},{"station_id":"234","external_id":"a8ee6220-5672-4aa5-8ecb-637180e0e4c8","name":"CE-041 Reforma - Av. de la República","short_name":"041","lat":19.43542,"lon":-99.150317,"rental_methods":["KEY","CREDITCARD"],"capacity":15,"electric_bike_surcharge_waiver":false,"is_charging":false,"eightd_has_key_dispenser":false,"has_kiosk":true},{"station_id":"235","external_id":"8f6e0da6-0161-444d-bbea-e084b213befb","name":"CE-226 Wallon-Presidente Masaryk","short_name":"226","lat":19.431033,"lon":-99.18222,"rental_methods":["KEY","CREDITCARD"],"capacity":27,"electric_bike_surcharge_waiver":false,"is_charging":false,"eightd_has_key_dispenser":false,"has_kiosk":true},{"station_id":"236","external_id":"7bb2f451-2605-4d64-82a9-46cc278538cf","name":"CE-468 Lago Xochimilco-Av. Ejército Nacional","short_name":"468","lat":19.43726,"lon":-99.179624,"rental_methods":["KEY","CREDITCARD"],"capacity":31,"electric_bike_surcharge_waiver":false,"is_charging":false,"eightd_has_key_dispenser":false,"has_kiosk":true},{"station_id":"237","external_id":"0dbb66af-908d-458c-a266-dfa970277f32","name":"CE-256 Gómez Farías-Sadi Carnot","short_name":"256","lat":19.437128,"lon":-99.158363,"rental_methods":["KEY","CREDITCARD"],"capacity":23,"electric_bike_surcharge_waiver":false,"is_charging":false,"eightd_has_key_dispenser":false,"has_kiosk":true},{"station_id":"238","external_id":"171a20e1-44c8-4e75-841d-6f9a6d9d0e59","name":"CE-119 Turín-Abraham González","short_name":"119","lat":19.4268522887659,"lon":-99.1556279361248,"rental_methods":["KEY","CREDITCARD"],"capacity":15,"electric_bike_surcharge_waiver":false,"is_charging":false,"eightd_has_key_dispenser":false,"has_kiosk":true},{"station_id":"239","external_id":"16c32159-9a2c-4b33-a8fe-bee8522222df","name":"CE-475 Lago Muritz-Lago Alberto","short_name":"475","lat":19.439249,"lon":-99.181065,"rental_methods":["KEY","CREDITCARD"],"capacity":23,"electric_bike_surcharge_waiver":false,"is_charging":false,"eightd_has_key_dispenser":false,"has_kiosk":true},{"station_id":"240","external_id":"1392d633-6994-4b12-93ce-147511472a39","name":"CE-010 Reforma - Ramírez","short_name":"010","lat":19.433431,"lon":-99.155142,"rental_methods":["KEY","CREDITCARD"],"capacity":27,"electric_bike_surcharge_waiver":false,"is_charging":false,"eightd_has_key_dispenser":false,"has_kiosk":true},{"station_id":"241","external_id":"a07c3856-b0e0-4e50-8e43-7edce27f2a4b","name":"CE-450 Ramos Arizpe- Av Méxito Tenochtitlan","short_name":"450","lat":19.438228,"lon":-99.152269,"rental_methods":["KEY","CREDITCARD"],"capacity":31,"electric_bike_surcharge_waiver":false,"is_charging":false,"eightd_has_key_dispenser":false,"has_kiosk":true},{"station_id":"242","external_id":"594231e6-9945-492d-8c6a-932368c62efa","name":"CE-555 Ribera de San Cosme - Insurgentes Centro","short_name":"555","lat":19.44021597,"lon":-99.1561678,"rental_methods":["KEY","CREDITCARD"],"capacity":35,"electric_bike_surcharge_waiver":false,"is_charging":false,"eightd_has_key_dispenser":false,"has_kiosk":true},{"station_id":"243","external_id":"07e1481c-bfd1-4fe1-b1ea-bde27b22d599","name":"CE-270 De la República-Ponciano Arriaga","short_name":"270","lat":19.436764,"lon":-99.153865,"rental_methods":["KEY","CREDITCARD"],"capacity":15,"electric_bike_surcharge_waiver":false,"is_charging":false,"eightd_has_key_dispenser":false,"has_kiosk":true},{"station_id":"244","external_id":"4febbe25-bf6f-4417-a439-ce8b2c36067b","name":"CE-248 Shakespeare-Lafayette","short_name":"248","lat":19.43175,"lon":-99.177399,"rental_methods":["KEY","CREDITCARD"],"capacity":23,"electric_bike_surcharge_waiver":false,"is_charging":false,"eightd_has_key_dispenser":false,"has_kiosk":true},{"station_id":"245","external_id":"3c68073a-8f40-437f-aace-4d81b9d306ee","name":"CE-476 Lago Como-Laguna de Mayrán","short_name":"476","lat":19.442127,"lon":-99.184433,"rental_methods":["KEY","CREDITCARD"],"capacity":35,"electric_bike_surcharge_waiver":false,"is_charging":false,"eightd_has_key_dispenser":false,"has_kiosk":true},{"station_id":"246","external_id":"aac6da4a-670b-4db2-a022-c7140bdd79e5","name":"CE-174 Joaquín Garcia Icazbalceta-Ignacio Manuel Altamirano","short_name":"174","lat":19.441114,"lon":-99.161636,"rental_methods":["KEY","CREDITCARD"],"capacity":31,"electric_bike_surcharge_waiver":false,"is_charging":false,"eightd_has_key_dispenser":false,"has_kiosk":true},{"station_id":"247","external_id":"c72052bc-3558-4de1-965a-de87aba52eba","name":"CE-237-238 Andrés Bello-George Eliot","short_name":"237-238","lat":19.426744,"lon":-99.193986,"rental_methods":["KEY","CREDITCARD"],"capacity":63,"electric_bike_surcharge_waiver":false,"is_charging":false,"eightd_has_key_dispenser":false,"has_kiosk":true},{"station_id":"248","external_id":"9f85cfc9-2105-40c6-bedd-d5e35a9da5b0","name":"CE-055 5 de Mayo - Bolívar","short_name":"055","lat":19.434514,"lon":-99.138068,"rental_methods":["KEY","CREDITCARD"],"capacity":15,"electric_bike_surcharge_waiver":false,"is_charging":false,"eightd_has_key_dispenser":false,"has_kiosk":true},{"station_id":"249","external_id":"fb31f815-4867-45c2-a6ce-79bfe43b74ce","name":"CE-124 Claudio Bernard-Dr. Liceaga","short_name":"124","lat":19.422392,"lon":-99.150358,"rental_methods":["KEY","CREDITCARD"],"capacity":35,"electric_bike_surcharge_waiver":false,"is_charging":false,"eightd_has_key_dispenser":false,"has_kiosk":true},{"station_id":"250","external_id":"7d1daa43-570e-4298-a336-bb6ca240f3d9","name":"CE-082 Independencia - Marroquí","short_name":"082","lat":19.433344,"lon":-99.14404,"rental_methods":["KEY","CREDITCARD"],"capacity":11,"electric_bike_surcharge_waiver":false,"is_charging":false,"eightd_has_key_dispenser":false,"has_kiosk":true},{"station_id":"251","external_id":"5307ca7a-dd54-4b02-abb0-9aebc7025717","name":"CE-262 República de Cuba-República de Brasil","short_name":"262","lat":19.436931,"lon":-99.133952,"rental_methods":["KEY","CREDITCARD"],"capacity":31,"electric_bike_surcharge_waiver":false,"is_charging":false,"eightd_has_key_dispenser":false,"has_kiosk":true},{"station_id":"252","external_id":"5c1b06af-35e2-46e4-9c85-b62eec6f486d","name":"CE-235-236 Campos Elíseos-Moliere","short_name":"235-236","lat":19.429332,"lon":-99.202181,"rental_methods":["KEY","CREDITCARD"],"capacity":55,"electric_bike_surcharge_waiver":false,"is_charging":false,"eightd_has_key_dispenser":false,"has_kiosk":true},{"station_id":"253","external_id":"c09092c9-37f5-45ad-8240-5196088b2b9e","name":"CE-104 San Jerónimo-Isabel la Católica","short_name":"104","lat":19.427059,"lon":-99.137116,"rental_methods":["KEY","CREDITCARD"],"capacity":11,"electric_bike_surcharge_waiver":false,"is_charging":false,"eightd_has_key_dispenser":false,"has_kiosk":true},{"station_id":"254","external_id":"d5a412b7-c962-4f80-8d02-c832ec3a5478","name":"CE-136 Álvaro Obregón-Tonalá","short_name":"136","lat":19.417715,"lon":-99.162729,"rental_methods":["KEY","CREDITCARD"],"capacity":19,"electric_bike_surcharge_waiver":false,"is_charging":false,"eightd_has_key_dispenser":false,"has_kiosk":true},{"station_id":"255","external_id":"7615f629-01c3-4809-a0ee-470f6c08196b","name":"CE-183 Gabino Barreda-Guillermo Prieto","short_name":"183","lat":19.437665,"lon":-99.164018,"rental_methods":["KEY","CREDITCARD"],"capacity":35,"electric_bike_surcharge_waiver":false,"is_charging":false,"eightd_has_key_dispenser":false,"has_kiosk":true},{"station_id":"256","external_id":"e6fcae25-1da2-4314-91c4-26e4e380c04a","name":"CE-095 20 de Noviembre-Venustiano Carranza","short_name":"095","lat":19.430682555945197,"lon":-99.1337009892004,"rental_methods":["KEY","CREDITCARD"],"capacity":19,"electric_bike_surcharge_waiver":false,"is_charging":false,"eightd_has_key_dispenser":false,"has_kiosk":true},{"station_id":"257","external_id":"54e90403-a466-4cde-a860-021d38097b18","name":"CE-036 Puebla - Veracruz","short_name":"036","lat":19.41966,"lon":-99.17588,"rental_methods":["KEY","CREDITCARD"],"capacity":31,"electric_bike_surcharge_waiver":false,"is_charging":false,"eightd_has_key_dispenser":false,"has_kiosk":true},{"station_id":"258","external_id":"19e7a56c-bda1-42a3-97f4-f2f006f90e97","name":"CE-063 Nuevo León - Laredo","short_name":"063","lat":19.41299,"lon":-99.171675,"rental_methods":["KEY","CREDITCARD"],"capacity":35,"electric_bike_surcharge_waiver":false,"is_charging":false,"eightd_has_key_dispenser":false,"has_kiosk":true},{"station_id":"259","external_id":"2c063656-4ef6-4989-ac64-5b53dfd6a1df","name":"CE-087 Gante - Venustiano Carranza","short_name":"087","lat":19.432024,"lon":-99.139705,"rental_methods":["KEY","CREDITCARD"],"capacity":25,"electric_bike_surcharge_waiver":false,"is_charging":false,"eightd_has_key_dispenser":false,"has_kiosk":true},{"station_id":"260","external_id":"fae0da34-444e-4f46-a8ef-afaf7b42798e","name":"CE-020 Reforma- Río Támesis","short_name":"020","lat":19.430907,"lon":-99.160148,"rental_methods":["KEY","CREDITCARD"],"capacity":23,"electric_bike_surcharge_waiver":false,"is_charging":false,"eightd_has_key_dispenser":false,"has_kiosk":true},{"station_id":"261","external_id":"cb190b81-e0bf-448e-a9c5-f11533af7c76","name":"CE-015 Reforma - Río Mississippi","short_name":"015","lat":19.425597,"lon":-99.171409,"rental_methods":["KEY","CREDITCARD"],"capacity":23,"electric_bike_surcharge_waiver":false,"is_charging":false,"eightd_has_key_dispenser":false,"has_kiosk":true},{"station_id":"262","external_id":"529a5727-9aab-4db5-ac67-93bd56881a71","name":"CE-075 Alfonso Reyes - Atlixco","short_name":"075","lat":19.408676,"lon":-99.176759,"rental_methods":["KEY","CREDITCARD"],"capacity":33,"electric_bike_surcharge_waiver":false,"is_charging":false,"eightd_has_key_dispenser":false,"has_kiosk":true},{"station_id":"263","external_id":"e82d82be-1e20-46c3-bb62-9c600052818b","name":"CE-017 Reforma - Río Tiber","short_name":"017","lat":19.427553,"lon":-99.167396,"rental_methods":["KEY","CREDITCARD"],"capacity":27,"electric_bike_surcharge_waiver":false,"is_charging":false,"eightd_has_key_dispenser":false,"has_kiosk":true},{"station_id":"264","external_id":"e2e1d6b1-2af7-41d9-bde1-2d5bca7000b2","name":"CE-080 Nuevo León - Aguascalientes","short_name":"080","lat":19.407233,"lon":-99.172131,"rental_methods":["KEY","CREDITCARD"],"capacity":35,"electric_bike_surcharge_waiver":false,"is_charging":false,"eightd_has_key_dispenser":false,"has_kiosk":true},{"station_id":"265","external_id":"f34d819c-1c64-425d-a788-67d7114d3820","name":"CE-023 Reforma - Praga","short_name":"023","lat":19.42528,"lon":-99.171099,"rental_methods":["KEY","CREDITCARD"],"capacity":23,"electric_bike_surcharge_waiver":false,"is_charging":false,"eightd_has_key_dispenser":false,"has_kiosk":true},{"station_id":"266","external_id":"d6aefac2-3e57-4eff-8261-8632bcf85262","name":"CE-085 Rosas Moreno - Sullivan","short_name":"085","lat":19.434059327049166,"lon":-99.16243817658597,"rental_methods":["KEY","CREDITCARD"],"capacity":15,"electric_bike_surcharge_waiver":false,"is_charging":false,"eightd_has_key_dispenser":false,"has_kiosk":true},{"station_id":"267","external_id":"fe446a92-8e6f-4e85-9fb5-62c63308753d","name":"CE-014 Reforma - Río de Plata","short_name":"014","lat":19.42454,"lon":-99.173247,"rental_methods":["KEY","CREDITCARD"],"capacity":39,"electric_bike_surcharge_waiver":false,"is_charging":false,"eightd_has_key_dispenser":false,"has_kiosk":true},{"station_id":"268","external_id":"9754d284-1145-4c1d-8c63-159c0a70b47a","name":"CE-135 Álvaro Obregón-Morelia","short_name":"135","lat":19.419250969141167,"lon":-99.15503863246612,"rental_methods":["KEY","CREDITCARD"],"capacity":23,"electric_bike_surcharge_waiver":false,"is_charging":false,"eightd_has_key_dispenser":false,"has_kiosk":true},{"station_id":"269","external_id":"1d98a54e-075f-4e65-8f12-24fd23c8d3f9","name":"CE-089 República de Guatemala - Monte de Piedad","short_name":"089","lat":19.434962,"lon":-99.133729,"rental_methods":["KEY","CREDITCARD"],"capacity":11,"electric_bike_surcharge_waiver":false,"is_charging":false,"eightd_has_key_dispenser":false,"has_kiosk":true},{"station_id":"270","external_id":"f96bb576-76d8-41c8-a0ca-b0ae4bc35134","name":"CE-133 Colima-Morelia","short_name":"133","lat":19.421138,"lon":-99.154725,"rental_methods":["KEY","CREDITCARD"],"capacity":35,"electric_bike_surcharge_waiver":false,"is_charging":false,"eightd_has_key_dispenser":false,"has_kiosk":true},{"station_id":"271","external_id":"da798f39-7b3c-400c-9c2d-450360eb82b4","name":"CE-141 Zacatecas-Luis Cabrera","short_name":"141","lat":19.415905,"lon":-99.15954,"rental_methods":["KEY","CREDITCARD"],"capacity":31,"electric_bike_surcharge_waiver":false,"is_charging":false,"eightd_has_key_dispenser":false,"has_kiosk":true},{"station_id":"272","external_id":"4a0c3604-b54a-4d95-b6fa-e78c48c00fb3","name":"CE-092 San Ildefonso-República de Argentina","short_name":"092","lat":19.436531,"lon":-99.131497,"rental_methods":["KEY","CREDITCARD"],"capacity":23,"electric_bike_surcharge_waiver":false,"is_charging":false,"eightd_has_key_dispenser":false,"has_kiosk":true},{"station_id":"273","external_id":"cacadce3-38bd-42db-80d0-3894db9d70a1","name":"CE-470 Bahía de Las Palmas-Bahía de Todos Los Santos","short_name":"470","lat":19.435039,"lon":-99.173879,"rental_methods":["KEY","CREDITCARD"],"capacity":23,"electric_bike_surcharge_waiver":false,"is_charging":false,"eightd_has_key_dispenser":false,"has_kiosk":true},{"station_id":"275","external_id":"218c4295-a05b-4916-9c1e-dfec786a807f","name":"CE-239 Rincón del Bosque-Ruben Darío","short_name":"239","lat":19.430153,"lon":-99.181355,"rental_methods":["KEY","CREDITCARD"],"capacity":19,"electric_bike_surcharge_waiver":false,"is_charging":false,"eightd_has_key_dispenser":false,"has_kiosk":true},{"station_id":"276","external_id":"1ea37a5f-2b94-4882-bbd2-f8f942a7afd4","name":"CE-656 Ignacio Allende - Paris","short_name":"656","lat":19.3543111,"lon":-99.1624361,"rental_methods":["KEY","CREDITCARD"],"capacity":35,"electric_bike_surcharge_waiver":false,"is_charging":false,"eightd_has_key_dispenser":false,"has_kiosk":true},{"station_id":"277","external_id":"cddb917b-e054-4d52-b21c-6717bacc4182","name":"CE-305 Avenida del Parque-Arizona","short_name":"305","lat":19.394693,"lon":-99.175531,"rental_methods":["KEY","CREDITCARD"],"capacity":31,"electric_bike_surcharge_waiver":false,"is_charging":false,"eightd_has_key_dispenser":false,"has_kiosk":true},{"station_id":"278","external_id":"77736abb-679e-4be2-aa7d-2de1c7fae261","name":"CE-121 Niza-Chapultepec","short_name":"121","lat":19.42413685832429,"lon":-99.16131634266549,"rental_methods":["KEY","CREDITCARD"],"capacity":15,"electric_bike_surcharge_waiver":false,"is_charging":false,"eightd_has_key_dispenser":false,"has_kiosk":true},{"station_id":"279","external_id":"4033d595-d8ca-4c68-8bfd-6520d4fb5ca5","name":"CE-027 Reforma- Havre","short_name":"027","lat":19.42916,"lon":-99.162703,"rental_methods":["KEY","CREDITCARD"],"capacity":43,"electric_bike_surcharge_waiver":false,"is_charging":false,"eightd_has_key_dispenser":false,"has_kiosk":true},{"station_id":"280","external_id":"d2cdc2a2-ca10-418f-a13f-1846d34f8fb4","name":"CE-252 Víctor Hugo-Shakespeare","short_name":"252","lat":19.427575,"lon":-99.17702,"rental_methods":["KEY","CREDITCARD"],"capacity":19,"electric_bike_surcharge_waiver":false,"is_charging":false,"eightd_has_key_dispenser":false,"has_kiosk":true},{"station_id":"281","external_id":"3c9a5306-62ab-4834-9f8e-e2fc4f6d6df1","name":"CE-251 Goethe-Darwin","short_name":"251","lat":19.429261,"lon":-99.17538,"rental_methods":["KEY","CREDITCARD"],"capacity":15,"electric_bike_surcharge_waiver":false,"is_charging":false,"eightd_has_key_dispenser":false,"has_kiosk":true},{"station_id":"282","external_id":"eb3a2763-db31-4380-ae0c-74f95d0044a1","name":"CE-117 Londres-Nápoles","short_name":"117","lat":19.427132,"lon":-99.160369,"rental_methods":["KEY","CREDITCARD"],"capacity":31,"electric_bike_surcharge_waiver":false,"is_charging":false,"eightd_has_key_dispenser":false,"has_kiosk":true},{"station_id":"283","external_id":"21176df6-3139-4c4e-afb1-583834128215","name":"CE-250 Darwin-Mariano Escobedo","short_name":"250","lat":19.428949,"lon":-99.179796,"rental_methods":["KEY","CREDITCARD"],"capacity":23,"electric_bike_surcharge_waiver":false,"is_charging":false,"eightd_has_key_dispenser":false,"has_kiosk":true},{"station_id":"284","external_id":"b622eab9-3cb4-4795-b965-ddb6fb6ed794","name":"CE-217 Euler-Horacio","short_name":"217","lat":19.432888,"lon":-99.183605,"rental_methods":["KEY","CREDITCARD"],"capacity":31,"electric_bike_surcharge_waiver":false,"is_charging":false,"eightd_has_key_dispenser":false,"has_kiosk":true},{"station_id":"285","external_id":"1c8651d1-c782-46d7-8b6a-f93b13162166","name":"CE-224 Hegel-Presidente Masaryk","short_name":"224","lat":19.431255,"lon":-99.188065,"rental_methods":["KEY","CREDITCARD"],"capacity":15,"electric_bike_surcharge_waiver":false,"is_charging":false,"eightd_has_key_dispenser":false,"has_kiosk":true},{"station_id":"286","external_id":"c21039a2-f166-499f-bb1b-4672e12d2e4a","name":"CE-215 Edgar Alan Poe-Horacio","short_name":"215","lat":19.43384,"lon":-99.19968,"rental_methods":["KEY","CREDITCARD"],"capacity":23,"electric_bike_surcharge_waiver":false,"is_charging":false,"eightd_has_key_dispenser":false,"has_kiosk":true},{"station_id":"287","external_id":"4333dab0-9f57-4e9e-92f1-bd1f8c47d436","name":"CE-202 Calderón de la Barca-Av. Homero","short_name":"202","lat":19.436064,"lon":-99.198898,"rental_methods":["KEY","CREDITCARD"],"capacity":19,"electric_bike_surcharge_waiver":false,"is_charging":false,"eightd_has_key_dispenser":false,"has_kiosk":true},{"station_id":"288","external_id":"c25a3045-5d6b-4fa8-a11b-3785ab9a1591","name":"CE-240 Ejército Nacional-F.C. de Cuernavaca","short_name":"240","lat":19.438551,"lon":-99.206298,"rental_methods":["KEY","CREDITCARD"],"capacity":15,"electric_bike_surcharge_waiver":false,"is_charging":false,"eightd_has_key_dispenser":false,"has_kiosk":true},{"station_id":"289","external_id":"c04e2192-3fca-4562-b18f-f332edb49647","name":"CE-047 Plaza Madrid-Medellín","short_name":"047","lat":19.419506460644055,"lon":-99.16636526590081,"rental_methods":["KEY","CREDITCARD"],"capacity":29,"electric_bike_surcharge_waiver":false,"is_charging":false,"eightd_has_key_dispenser":false,"has_kiosk":true},{"station_id":"290","external_id":"90bbf53e-6cbb-4024-924c-4168f9f43350","name":"CE-258 Circuito Interior-Juan Escutia","short_name":"258","lat":19.4165298,"lon":-99.1790435,"rental_methods":["KEY","CREDITCARD"],"capacity":15,"electric_bike_surcharge_waiver":false,"is_charging":false,"eightd_has_key_dispenser":false,"has_kiosk":true},{"station_id":"291","external_id":"ed597ddf-07b6-4dcb-ab00-c95ffca1eb58","name":"CE-011 Río Amazonas - Río Lerma","short_name":"011","lat":19.431192,"lon":-99.163546,"rental_methods":["KEY","CREDITCARD"],"capacity":15,"electric_bike_surcharge_waiver":false,"is_charging":false,"eightd_has_key_dispenser":false,"has_kiosk":true},{"station_id":"292","external_id":"5728b66d-9e63-4efe-b705-561ae0a7f2df","name":"CE-001 Río Sena-Río Balsas","short_name":"001","lat":19.43347819859695,"lon":-99.16778985412292,"rental_methods":["KEY","CREDITCARD"],"capacity":35,"electric_bike_surcharge_waiver":false,"is_charging":false,"eightd_has_key_dispenser":false,"has_kiosk":true},{"station_id":"293","external_id":"3c7dc21f-5a48-4b64-bb8c-7b28e0cf8181","name":"CE-103 Joaquín Velázquez de León - García Icazbalceta","short_name":"103","lat":19.441533,"lon":-99.165268,"rental_methods":["KEY","CREDITCARD"],"capacity":31,"electric_bike_surcharge_waiver":false,"is_charging":false,"eightd_has_key_dispenser":false,"has_kiosk":true},{"station_id":"294","external_id":"adc3a806-e8d7-4f15-a9ff-fa98374daa3b","name":"CE-013 Reforma - Río Mississippi","short_name":"013","lat":19.424941,"lon":-99.17233,"rental_methods":["KEY","CREDITCARD"],"capacity":19,"electric_bike_surcharge_waiver":false,"is_charging":false,"eightd_has_key_dispenser":false,"has_kiosk":true},{"station_id":"295","external_id":"1b044e36-c21f-42a6-908b-2ed578a0b7d5","name":"CE-018 Reforma - Río Rhin","short_name":"018","lat":19.428802,"lon":-99.164381,"rental_methods":["KEY","CREDITCARD"],"capacity":39,"electric_bike_surcharge_waiver":false,"is_charging":false,"eightd_has_key_dispenser":false,"has_kiosk":true},{"station_id":"296","external_id":"942a1e91-d981-4137-b7ee-6168ae349a1d","name":"CE-038 Cozumel - Puebla","short_name":"038","lat":19.420829444872908,"lon":-99.17142122989388,"rental_methods":["KEY","CREDITCARD"],"capacity":35,"electric_bike_surcharge_waiver":false,"is_charging":false,"eightd_has_key_dispenser":false,"has_kiosk":true},{"station_id":"297","external_id":"b814aca6-6eb5-4892-b8ce-81ec9356e571","name":"CE-449 Acapulco-Puebla","short_name":"449","lat":19.420281,"lon":-99.174392,"rental_methods":["KEY","CREDITCARD"],"capacity":27,"electric_bike_surcharge_waiver":false,"is_charging":false,"eightd_has_key_dispenser":false,"has_kiosk":true},{"station_id":"298","external_id":"2f8cd96a-34f6-493b-821d-743fc98e856f","name":"CE-028 Toledo- Tokio","short_name":"028","lat":19.423664,"lon":-99.172568,"rental_methods":["KEY","CREDITCARD"],"capacity":35,"electric_bike_surcharge_waiver":false,"is_charging":false,"eightd_has_key_dispenser":false,"has_kiosk":true},{"station_id":"299","external_id":"00fbd081-f5c7-4818-9d87-335b654fad39","name":"CE-034 Liverpool - Génova","short_name":"034","lat":19.424584,"lon":-99.163688,"rental_methods":["KEY","CREDITCARD"],"capacity":23,"electric_bike_surcharge_waiver":false,"is_charging":false,"eightd_has_key_dispenser":false,"has_kiosk":true},{"station_id":"300","external_id":"3636bd9a-f436-4c34-ac3d-e1fd233fa747","name":"CE-232 Taine - Rubén Darío","short_name":"232","lat":19.42894,"lon":-99.185389,"rental_methods":["KEY","CREDITCARD"],"capacity":31,"electric_bike_surcharge_waiver":false,"is_charging":false,"eightd_has_key_dispenser":false,"has_kiosk":true},{"station_id":"301","external_id":"2ab5c164-0e9b-400b-b01a-6920977f7e1a","name":"CE-227 Campos Elíseos-Periférico","short_name":"227","lat":19.431791,"lon":-99.207373,"rental_methods":["KEY","CREDITCARD"],"capacity":23,"electric_bike_surcharge_waiver":false,"is_charging":false,"eightd_has_key_dispenser":false,"has_kiosk":true},{"station_id":"302","external_id":"081413e0-e891-4c5b-8c7a-a204d872fc4e","name":"CE-211 Isaac Newton-Horacio","short_name":"211","lat":19.433607,"lon":-99.188528,"rental_methods":["KEY","CREDITCARD"],"capacity":35,"electric_bike_surcharge_waiver":false,"is_charging":false,"eightd_has_key_dispenser":false,"has_kiosk":true},{"station_id":"303","external_id":"2a29f15c-f738-4f48-af7f-6059587177a5","name":"CE-478 Laguna de Mayrán-Lago Chalco","short_name":"478","lat":19.440818,"lon":-99.176961,"rental_methods":["KEY","CREDITCARD"],"capacity":27,"electric_bike_surcharge_waiver":false,"is_charging":false,"eightd_has_key_dispenser":false,"has_kiosk":true},{"station_id":"304","external_id":"1f77a6fa-bc3a-4db4-b5eb-830f9be084b2","name":"CE-474 Bahía de San Hipólito-Bahía del Espíritu Santo","short_name":"474","lat":19.438984,"lon":-99.177549,"rental_methods":["KEY","CREDITCARD"],"capacity":31,"electric_bike_surcharge_waiver":false,"is_charging":false,"eightd_has_key_dispenser":false,"has_kiosk":true},{"station_id":"305","external_id":"6e92c835-6e91-489f-a0cd-f27bacb0d5d2","name":"CE-176 Av. Jesús García-Luis Donaldo Colosio","short_name":"176","lat":19.442717,"lon":-99.152262,"rental_methods":["KEY","CREDITCARD"],"capacity":39,"electric_bike_surcharge_waiver":false,"is_charging":false,"eightd_has_key_dispenser":false,"has_kiosk":true},{"station_id":"306","external_id":"810045a6-dae1-4a90-a9d2-a7a5612f758e","name":"CE-244 Lago Victoria-Miguel de Cervantes Saavedra","short_name":"244","lat":19.440508,"lon":-99.193681,"rental_methods":["KEY","CREDITCARD"],"capacity":23,"electric_bike_surcharge_waiver":false,"is_charging":false,"eightd_has_key_dispenser":false,"has_kiosk":true},{"station_id":"307","external_id":"c638cdc5-2609-4347-9b19-f6087349a788","name":"CE-219 Esopo-FC de Cuernavaca","short_name":"219","lat":19.433542,"lon":-99.207808,"rental_methods":["KEY","CREDITCARD"],"capacity":39,"electric_bike_surcharge_waiver":false,"is_charging":false,"eightd_has_key_dispenser":false,"has_kiosk":true},{"station_id":"309","external_id":"d40abda3-8a2b-43bf-950c-e1ad45085050","name":"CE-465 Lago Ginebra-Lago Wetter","short_name":"465","lat":19.445039,"lon":-99.194078,"rental_methods":["KEY","CREDITCARD"],"capacity":27,"electric_bike_surcharge_waiver":false,"is_charging":false,"eightd_has_key_dispenser":false,"has_kiosk":true},{"station_id":"311","external_id":"f87a9282-20d7-4189-a040-72c6e07861ac","name":"CE-257 Manuel Maria Contreras-Villalongin","short_name":"257","lat":19.433803,"lon":-99.166223,"rental_methods":["KEY","CREDITCARD"],"capacity":19,"electric_bike_surcharge_waiver":false,"is_charging":false,"eightd_has_key_dispenser":false,"has_kiosk":true},